{
  "fetch_date": "2026-01-15",
  "restaurants": [
    {
      "name": "Smoke Shack Poutine",
      "place_id": "ChIJrUzgX001K4gRtD6p0Kv9sZQ",
      "address": "Pick Up Inside O'Grady's, 518 B Church St, Toronto",
      "lat": 43.6644927,
      "lon": -79.3806306,
      "rating": 4.1,
      "user_ratings_total": 36,
      "city": "Toronto",
      "website": "https://beacons.ai/smokeshackpoutine"
    },
    {
      "name": "Adam\u2019s ( Burger Poutine,Wings &Phillysteaks)",
      "place_id": "ChIJr9Oe8e3N1IkRnoDYIqP7zSI",
      "address": "1760 Victoria Park Ave, Scarborough",
      "lat": 43.7365672,
      "lon": -79.3081133,
      "rating": 4.6,
      "user_ratings_total": 1307,
      "city": "Toronto",
      "website": "https://adams-diner.square.site/"
    },
    {
      "name": "RIVERSIDE BURGERS",
      "place_id": "ChIJcX4e2LrL1IkRUW7awGdaI_g",
      "address": "688 Queen St E, Toronto",
      "lat": 43.6588413,
      "lon": -79.350703,
      "rating": 4.6,
      "user_ratings_total": 941,
      "city": "Toronto",
      "website": "http://riversideburgers.ca/"
    },
    {
      "name": "Poutine Hub",
      "place_id": "ChIJgdeOcwDL1IkRMe8hem4DbcA",
      "address": "181 Parliament St, Toronto",
      "lat": 43.656022,
      "lon": -79.36431139999999,
      "rating": 4.9,
      "user_ratings_total": 1008,
      "city": "Toronto",
      "website": "https://www.instagram.com/poutine.hub"
    },
    {
      "name": "Poutine Hub",
      "place_id": "ChIJ4e0U0T8xK4gReFdgHenre6E",
      "address": "132 Dundas St E, Toronto",
      "lat": 43.6567882,
      "lon": -79.3762583,
      "rating": 4.9,
      "user_ratings_total": 423,
      "city": "Toronto",
      "website": "https://www.instagram.com/poutine.hub"
    },
    {
      "name": "RUDY",
      "place_id": "ChIJffD4dOQ3K4gRfsNqOrg2x-w",
      "address": "1466 The Queensway, Etobicoke",
      "lat": 43.6195846,
      "lon": -79.5345651,
      "rating": 4.3,
      "user_ratings_total": 1763,
      "city": "Toronto",
      "website": "http://orders.rudyresto.com/"
    },
    {
      "name": "Poutine Delight",
      "place_id": "ChIJYXuA_iXL1IkR9DKwbId2cW8",
      "address": "415 Parliament St, Toronto",
      "lat": 43.6624583,
      "lon": -79.3670916,
      "rating": 2.7,
      "user_ratings_total": 19,
      "city": "Toronto",
      "website": "https://order.online/business/poutine-delight-890794"
    },
    {
      "name": "Philthy Philly's",
      "place_id": "ChIJbTBHLdg1K4gRef8bGYGEz4Q",
      "address": "624 Queen St W, Toronto",
      "lat": 43.6471184,
      "lon": -79.4056536,
      "rating": 4.2,
      "user_ratings_total": 350,
      "city": "Toronto",
      "website": "https://philthyphillys.com/"
    },
    {
      "name": "Meltwich Food Co",
      "place_id": "ChIJkcaLcoAvK4gRTuBWYdkZLlw",
      "address": "105 The Pond Rd Unit 90 Building C1, North York",
      "lat": 43.7696618,
      "lon": -79.50197589999999,
      "rating": 3.8,
      "user_ratings_total": 204,
      "city": "Toronto",
      "website": "http://www.meltwich.com/"
    },
    {
      "name": "Jack Astor's Bar & Grill Front Street",
      "place_id": "ChIJK2lqhdM0K4gRRLfXBys5VBc",
      "address": "144 Front St W, Toronto",
      "lat": 43.6454042,
      "lon": -79.383916,
      "rating": 4.2,
      "user_ratings_total": 8252,
      "city": "Toronto",
      "website": "https://jackastors.com/?locationId=937"
    },
    {
      "name": "Habibz Corner",
      "place_id": "ChIJecJyVB41K4gRYyepiHJl5js",
      "address": "578 Queen St W, Toronto",
      "lat": 43.6473799,
      "lon": -79.4037654,
      "rating": 4.9,
      "user_ratings_total": 4332,
      "city": "Toronto",
      "website": "https://habibzcorner.com/"
    },
    {
      "name": "Pizza CraviN (Scarborough)",
      "place_id": "ChIJp3HbFwbR1IkR0C2gNkn0oKU",
      "address": "832 Markham Rd, Scarborough",
      "lat": 43.7672196,
      "lon": -79.2288708,
      "rating": 4.8,
      "user_ratings_total": 349,
      "city": "Toronto",
      "website": "http://www.pizzacravin.com/"
    },
    {
      "name": "Hero Certified Burgers",
      "place_id": "ChIJHV7O17I0K4gR3you5Y9nJbA",
      "address": "77 Wellesley St E, Toronto",
      "lat": 43.6656261,
      "lon": -79.3807133,
      "rating": 3.7,
      "user_ratings_total": 762,
      "city": "Toronto",
      "website": "https://heroburgers.com/"
    },
    {
      "name": "BBQ at Bloor - Grill and BBQ Smokehouse",
      "place_id": "ChIJL5ZUa3g1K4gRr1IfPCUi67A",
      "address": "914 Bloor St W, Toronto",
      "lat": 43.66199049999999,
      "lon": -79.42658229999999,
      "rating": 4.5,
      "user_ratings_total": 778,
      "city": "Toronto",
      "website": "https://bbqbloor.com/"
    },
    {
      "name": "Georgy Porgys Grill & Bar",
      "place_id": "ChIJrbr2lozN1IkRbhrrOUh7PgM",
      "address": "1448 Lawrence Ave E Unit 1, North York",
      "lat": 43.7419444,
      "lon": -79.31472219999999,
      "rating": 4.3,
      "user_ratings_total": 951,
      "city": "Toronto",
      "website": "https://www.ritual.co/order/georgy-porgys-lawrence-victoria-toronto/b3f2"
    },
    {
      "name": "Poutineville",
      "place_id": "ChIJOXk4RrcbyUwRNGOTagHFjOw",
      "address": "1365 Ontario St E, Montreal",
      "lat": 45.5232253,
      "lon": -73.5612511,
      "rating": 4.3,
      "user_ratings_total": 4676,
      "city": "Montreal",
      "website": "http://poutineville.com/"
    },
    {
      "name": "Montr\u00e9al poutine",
      "place_id": "ChIJk1e6X1YayUwRDSRqCFzIyqI",
      "address": "181 Rue Saint-Paul E, Montr\u00e9al",
      "lat": 45.507364,
      "lon": -73.552709,
      "rating": 3.9,
      "user_ratings_total": 3532,
      "city": "Montreal",
      "website": null
    },
    {
      "name": "Poutine Centrale",
      "place_id": "ChIJc5Frp4obyUwRvLycN_6elBs",
      "address": "3971 Rue Hochelaga, Montr\u00e9al",
      "lat": 45.5514234,
      "lon": -73.5491,
      "rating": 4.3,
      "user_ratings_total": 1829,
      "city": "Montreal",
      "website": "http://www.poutinecentrale.com/"
    },
    {
      "name": "La Banquise",
      "place_id": "ChIJfwnXb88byUwREd8_58GDuI8",
      "address": "994 Rue Rachel E, Montr\u00e9al",
      "lat": 45.5253172,
      "lon": -73.5747925,
      "rating": 4.4,
      "user_ratings_total": 19761,
      "city": "Montreal",
      "website": "http://labanquise.com/"
    },
    {
      "name": "Poutine Boss",
      "place_id": "ChIJyam82DcZyUwR0LfBEgQMYZk",
      "address": "750 Bd Cr\u00e9mazie O #300, Montreal",
      "lat": 45.5330843,
      "lon": -73.64657509999999,
      "rating": 4.1,
      "user_ratings_total": 273,
      "city": "Montreal",
      "website": null
    },
    {
      "name": "Patati Patata Friterie de Luxe",
      "place_id": "ChIJISKNN80byUwRKAhUAA9dBmo",
      "address": "4177 Boul. Saint-Laurent, Montr\u00e9al",
      "lat": 45.5180477,
      "lon": -73.58148589999999,
      "rating": 4.4,
      "user_ratings_total": 2737,
      "city": "Montreal",
      "website": "https://patatimontreal.ca/"
    },
    {
      "name": "Comptoir poutine",
      "place_id": "ChIJvQIydXYPyUwRXGRlUxL3bdE",
      "address": "950 Taschereau Blvd, La Prairie",
      "lat": 45.4076187,
      "lon": -73.4975791,
      "rating": 4.9,
      "user_ratings_total": 91,
      "city": "Montreal",
      "website": null
    },
    {
      "name": "Franklin's subs and smoked meat",
      "place_id": "ChIJkdU9ZOAbyUwRm1XJoTglnMA",
      "address": "143 Saint-Paul St W, Montreal",
      "lat": 45.5036267,
      "lon": -73.5549041,
      "rating": 4.4,
      "user_ratings_total": 1271,
      "city": "Montreal",
      "website": "http://franklinsmtl.com/"
    },
    {
      "name": "Chez Ma Tante",
      "place_id": "ChIJk6jPLkcfyUwRt7uZokkyfoI",
      "address": "3180 Rue Fleury E, Montreal",
      "lat": 45.5792661,
      "lon": -73.6439144,
      "rating": 4.5,
      "user_ratings_total": 2494,
      "city": "Montreal",
      "website": "https://www.chezmatante.ca/fr/accueil/"
    },
    {
      "name": "Poutineville Bishop",
      "place_id": "ChIJLfJPl3wbyUwRl38DBzaIB2g",
      "address": "1228 Bishop St, Montreal",
      "lat": 45.4959642,
      "lon": -73.57543989999999,
      "rating": 4.3,
      "user_ratings_total": 557,
      "city": "Montreal",
      "website": "http://poutineville.com/"
    },
    {
      "name": "Poutine Laurier Restaurant",
      "place_id": "ChIJ_48oM-cbyUwRT2FPWecc6hI",
      "address": "2100 Laurier Ave E, Montreal",
      "lat": 45.5380123,
      "lon": -73.5782175,
      "rating": 4.1,
      "user_ratings_total": 202,
      "city": "Montreal",
      "website": null
    },
    {
      "name": "Burger Bar Crescent",
      "place_id": "ChIJYxKb3EEayUwRryU-I5Q7qW4",
      "address": "1465 Crescent St, Montreal",
      "lat": 45.4980159,
      "lon": -73.5771074,
      "rating": 4.4,
      "user_ratings_total": 3173,
      "city": "Montreal",
      "website": "http://www.montrealburger.com/"
    },
    {
      "name": "Restaurant Paulo & Suzanne",
      "place_id": "ChIJnahGvYsiyUwRTSy26CvLNjQ",
      "address": "5501 Boul Gouin O, Montr\u00e9al",
      "lat": 45.53382939999999,
      "lon": -73.7171631,
      "rating": 4.5,
      "user_ratings_total": 3915,
      "city": "Montreal",
      "website": "http://www.pauloetsuzanne.com/"
    },
    {
      "name": "Restaurant Chez Claudette",
      "place_id": "ChIJpeAPttcbyUwRVbeex_y_Ul8",
      "address": "351 Laurier Ave E, Montreal",
      "lat": 45.52642489999999,
      "lon": -73.5899951,
      "rating": 4.4,
      "user_ratings_total": 2286,
      "city": "Montreal",
      "website": null
    },
    {
      "name": "Restaurant Pesker\u00f4",
      "place_id": "ChIJ9eULUREfyUwRd0GzFNj4PfA",
      "address": "8521 Bd Saint-Michel, Montr\u00e9al",
      "lat": 45.56741299999999,
      "lon": -73.61705599999999,
      "rating": 3.9,
      "user_ratings_total": 244,
      "city": "Montreal",
      "website": "https://peskero.com/"
    },
    {
      "name": "Indi Co.@ Club Kitchen",
      "place_id": "ChIJ58RsUSVzhlQRzMqDbN75Uy0",
      "address": "988 Expo Blvd, Vancouver",
      "lat": 49.2753611,
      "lon": -123.1156317,
      "rating": 4.8,
      "user_ratings_total": 357,
      "city": "Vancouver",
      "website": "https://order.clubkitchen.ca/menu/indi-co"
    },
    {
      "name": "La Belle Patate",
      "place_id": "ChIJmVHtgityhlQR0mJeJBfU24E",
      "address": "1215 Davie St, Vancouver",
      "lat": 49.2820281,
      "lon": -123.1335133,
      "rating": 4.6,
      "user_ratings_total": 2032,
      "city": "Vancouver",
      "website": "http://www.poutinevancouver.com/"
    },
    {
      "name": "Fritz European Fry House",
      "place_id": "ChIJB2dabNRzhlQR8uUmA5w0nTQ",
      "address": "718 Davie St, Vancouver",
      "lat": 49.277318,
      "lon": -123.126683,
      "rating": 4.4,
      "user_ratings_total": 1616,
      "city": "Vancouver",
      "website": "https://fritzeuropeanfryhouse.shop/"
    },
    {
      "name": "Mean Poutine",
      "place_id": "ChIJeTFgOtJ9C0ERLUv5IanXSHw",
      "address": "718 Nelson St., Vancouver",
      "lat": 49.2793891,
      "lon": -123.1234592,
      "rating": 4.1,
      "user_ratings_total": 763,
      "city": "Vancouver",
      "website": "http://meanpoutine.ca/"
    },
    {
      "name": "Juicy Joe's Burgers",
      "place_id": "ChIJA_fL1dNzhlQR5Ymb-FkPyV0",
      "address": "2004 W 4th Ave, Vancouver",
      "lat": 49.2679604,
      "lon": -123.1507174,
      "rating": 4.8,
      "user_ratings_total": 1790,
      "city": "Vancouver",
      "website": "https://www.juicyjoes.ca/"
    },
    {
      "name": "Steamworks Mount Pleasant",
      "place_id": "ChIJT5JWkelxhlQRb9HCQ3v8_f8",
      "address": "2275 Main St, Vancouver",
      "lat": 49.2649991,
      "lon": -123.1011871,
      "rating": 4.3,
      "user_ratings_total": 535,
      "city": "Vancouver",
      "website": "https://steamworks.com/mount-pleasant/"
    },
    {
      "name": "Granville Kebab & Poutine",
      "place_id": "ChIJA_DTxOdzhlQRF4LAcFMOb60",
      "address": "1011 Granville St, Vancouver",
      "lat": 49.2791849,
      "lon": -123.1234316,
      "rating": 4.8,
      "user_ratings_total": 997,
      "city": "Vancouver",
      "website": "https://www.granvillekebab.ca/"
    },
    {
      "name": "Rikoko by Hungry Guys Kitchen",
      "place_id": "ChIJcyLHm9VzhlQRfeete-hmYjk",
      "address": "988 Granville St, Vancouver",
      "lat": 49.279319,
      "lon": -123.1226589,
      "rating": 4.5,
      "user_ratings_total": 1003,
      "city": "Vancouver",
      "website": "https://www.hungryguyskitchen.com/"
    },
    {
      "name": "The Flying Pig Yaletown",
      "place_id": "ChIJR-oj79ZzhlQRPxQ0DJ-fZRI",
      "address": "1168 Hamilton St, Vancouver",
      "lat": 49.2750232,
      "lon": -123.121994,
      "rating": 4.3,
      "user_ratings_total": 2675,
      "city": "Vancouver",
      "website": "http://theflyingpigvan.com/"
    },
    {
      "name": "Chickasta -Point Gray | Poutine| |Grill Chicken | Pasta | Burger |Shake| Rice Bowl | Wrap | Fries |",
      "place_id": "ChIJgaQnNbFzhlQRETb4rrSqP5A",
      "address": "4443 W 10th Ave, Vancouver",
      "lat": 49.2639215,
      "lon": -123.207363,
      "rating": 4.6,
      "user_ratings_total": 540,
      "city": "Vancouver",
      "website": "https://chickasta.com/"
    },
    {
      "name": "Mr. Poutin",
      "place_id": "ChIJjUbM2PpzhlQR0nub0_MjUVI",
      "address": "1187 Denman St, Vancouver",
      "lat": 49.2878279,
      "lon": -123.1412859,
      "rating": 4.6,
      "user_ratings_total": 126,
      "city": "Vancouver",
      "website": "https://mrpoutin.com/"
    },
    {
      "name": "Black Frog Eatery",
      "place_id": "ChIJkz2yLnhxhlQRP2X5ZpybBe0",
      "address": "108 Cambie St., Vancouver",
      "lat": 49.2846538,
      "lon": -123.1084894,
      "rating": 4.2,
      "user_ratings_total": 1025,
      "city": "Vancouver",
      "website": "http://theblackfrog.ca/"
    },
    {
      "name": "Chickasta Kingsway | Poutine| |Grill Chicken | Pasta | Burger |Shake| Rice Bowl | Wrap | Fries |",
      "place_id": "ChIJR_0Inz1xhlQRlBD0obFBhRw",
      "address": "1022 Kingsway, Vancouver",
      "lat": 49.2535567,
      "lon": -123.083526,
      "rating": 4.5,
      "user_ratings_total": 67,
      "city": "Vancouver",
      "website": "https://chickasta.com/"
    },
    {
      "name": "Cafe de l'Orangerie",
      "place_id": "ChIJgX5WN-t0hlQR6OHkfPphZRw",
      "address": "1320 W 73rd Ave, Vancouver",
      "lat": 49.2041713,
      "lon": -123.1354751,
      "rating": 4.4,
      "user_ratings_total": 1500,
      "city": "Vancouver",
      "website": "http://cafedelorangerie.ca/"
    },
    {
      "name": "MeeT in Yaletown",
      "place_id": "ChIJF6Rk5dZzhlQR8azs1JE8fCk",
      "address": "1165 Mainland St, Vancouver",
      "lat": 49.2749415,
      "lon": -123.1217991,
      "rating": 4.4,
      "user_ratings_total": 2236,
      "city": "Vancouver",
      "website": "https://eatmeet.ca/meet-in-yaletown/"
    },
    {
      "name": "The Big Cheese Poutinerie",
      "place_id": "ChIJ66KbCh9wcVMRa7ELFPwn4ls",
      "address": "738 17 Ave SW, Calgary",
      "lat": 51.03793899999999,
      "lon": -114.0790464,
      "rating": 4.3,
      "user_ratings_total": 1012,
      "city": "Calgary",
      "website": "https://mybigcheese.com/"
    },
    {
      "name": "Tonic Kitchen + Bar",
      "place_id": "ChIJX9KcdiBkcVMRMd6DA8y_LR4",
      "address": "22 Aero Cres NE East, Calgary",
      "lat": 51.1386862,
      "lon": -114.034604,
      "rating": 4.7,
      "user_ratings_total": 3293,
      "city": "Calgary",
      "website": "http://www.tonickitchen.ca/"
    },
    {
      "name": "OFF THE HOOK From Sea to land",
      "place_id": "ChIJG7JWyQx7cVMRu4FLqJ7alHc",
      "address": "7003 Ogden Rd SE, Calgary",
      "lat": 50.9899194,
      "lon": -114.0014584,
      "rating": 4.8,
      "user_ratings_total": 46,
      "city": "Calgary",
      "website": null
    },
    {
      "name": "Cafe Karak",
      "place_id": "ChIJybqDxRZjcVMRoXBeqQJ8bQs",
      "address": "63 Savanna Blvd NE, Calgary",
      "lat": 51.1349599,
      "lon": -113.9644325,
      "rating": 4.5,
      "user_ratings_total": 795,
      "city": "Calgary",
      "website": "https://cafekarakyyc.com/"
    },
    {
      "name": "D Spot Dessert Cafe Calgary Southwest",
      "place_id": "ChIJaUbQizJxcVMRdt17zliRDyk",
      "address": "2515 90 Ave SW #205, Calgary",
      "lat": 50.9718313,
      "lon": -114.1190746,
      "rating": 4.8,
      "user_ratings_total": 420,
      "city": "Calgary",
      "website": "https://www.dspotdessert.com/"
    },
    {
      "name": "Peters' Drive-In",
      "place_id": "ChIJCRyhgV1lcVMRSzpF7cC3Q1k",
      "address": "219 16 Ave NE, Calgary",
      "lat": 51.0666172,
      "lon": -114.0580426,
      "rating": 4.3,
      "user_ratings_total": 14089,
      "city": "Calgary",
      "website": "http://www.petersdrivein.com/"
    },
    {
      "name": "Sector 17 - Street Food Eatery Westwinds",
      "place_id": "ChIJVZT2ZK9jcVMR-QVej4arKf8",
      "address": "3770 Westwinds Dr NE #304, Calgary",
      "lat": 51.107316,
      "lon": -113.9746026,
      "rating": 4.3,
      "user_ratings_total": 1286,
      "city": "Calgary",
      "website": "http://www.sector17.ca/"
    },
    {
      "name": "Harvey\u2019s",
      "place_id": "ChIJK98wEAB7cVMRHczS-IwbqiE",
      "address": "3619 61 Ave SE Unit 4000, Calgary",
      "lat": 50.9982208,
      "lon": -113.9829368,
      "rating": 3.9,
      "user_ratings_total": 44,
      "city": "Calgary",
      "website": null
    },
    {
      "name": "PrimeTime Donair & Poutine",
      "place_id": "ChIJJbHoINVlcVMRbVByzNvQ9Ik",
      "address": "3172 Sunridge Blvd NE, Calgary",
      "lat": 51.0762273,
      "lon": -113.9900968,
      "rating": 4.6,
      "user_ratings_total": 524,
      "city": "Calgary",
      "website": "http://primetimedonair.com/"
    },
    {
      "name": "Fatburger Coventry Hills",
      "place_id": "ChIJnS7t-LhncVMRS2ckVwN9kOA",
      "address": "130 Country Village Rd NE #205, Calgary",
      "lat": 51.1609647,
      "lon": -114.0632801,
      "rating": 4.7,
      "user_ratings_total": 396,
      "city": "Calgary",
      "website": "http://fatburgercanada.com/"
    },
    {
      "name": "D Spot Dessert Cafe Calgary North East",
      "place_id": "ChIJBankCft7cVMRrtKMs6kIVtA",
      "address": "920 36 St NE Unit 123, Calgary",
      "lat": 51.0610303,
      "lon": -113.9806598,
      "rating": 4.6,
      "user_ratings_total": 1791,
      "city": "Calgary",
      "website": "https://www.dspotdessert.com/"
    },
    {
      "name": "iyycburg (Hillhurst)",
      "place_id": "ChIJsdyOrDFvcVMRHgBesvTTaUc",
      "address": "234 19 St NW, Calgary",
      "lat": 51.0544332,
      "lon": -114.1052313,
      "rating": 4.4,
      "user_ratings_total": 637,
      "city": "Calgary",
      "website": "http://www.iyycburg.com/"
    },
    {
      "name": "OEB Breakfast Co.",
      "place_id": "ChIJ_3eNBfxvcVMRyfDJukTj1pw",
      "address": "222 5 Ave SW #110, Calgary",
      "lat": 51.0489286,
      "lon": -114.0657845,
      "rating": 4.5,
      "user_ratings_total": 2914,
      "city": "Calgary",
      "website": "http://www.eatoeb.com/"
    },
    {
      "name": "The Big Cheese Poutinerie",
      "place_id": "ChIJi1WV0e5vcVMRTyrrT9mCfWs",
      "address": "207 10 St NW, Calgary",
      "lat": 51.0530492,
      "lon": -114.086114,
      "rating": 4.2,
      "user_ratings_total": 691,
      "city": "Calgary",
      "website": "https://mybigcheese.com/"
    },
    {
      "name": "The Burger's Priest",
      "place_id": "ChIJR0jANGB3cVMR9hK04F5-Hug",
      "address": "4600 130 Ave SE #418, Calgary",
      "lat": 50.9327653,
      "lon": -113.9704816,
      "rating": 4.6,
      "user_ratings_total": 1513,
      "city": "Calgary",
      "website": "https://www.theburgerspriest.com/en/locations/ab/calgary/4600-130-ave-se"
    },
    {
      "name": "La Poutine",
      "place_id": "ChIJEcLYQBkioFMR8CSP_Yf9Xhs",
      "address": "8720 109 St NW, Edmonton",
      "lat": 53.5232157,
      "lon": -113.5123542,
      "rating": 4.5,
      "user_ratings_total": 1133,
      "city": "Edmonton",
      "website": "http://www.la-poutine.com/"
    },
    {
      "name": "Marcos Famous",
      "place_id": "ChIJC199EzQioFMRofbbV_VmaAQ",
      "address": "10371 112 St NW, Edmonton",
      "lat": 53.5458675,
      "lon": -113.5131687,
      "rating": 4.6,
      "user_ratings_total": 1549,
      "city": "Edmonton",
      "website": "http://www.marcosfamous.net/"
    },
    {
      "name": "myFries Poutinerie",
      "place_id": "ChIJFVs6ZSIhoFMRinkfYfIkyoQ",
      "address": "18481 Stony Plain Rd, Edmonton",
      "lat": 53.5405358,
      "lon": -113.6416433,
      "rating": 4.6,
      "user_ratings_total": 828,
      "city": "Edmonton",
      "website": "http://www.myfries.ca/"
    },
    {
      "name": "Nimmy\u2019s Fusion Flavors",
      "place_id": "ChIJcfPGJhojoFMR8dk5Uo5sUWo",
      "address": "9718 Ottewell Rd NW, Edmonton",
      "lat": 53.53698439999999,
      "lon": -113.4383265,
      "rating": 5,
      "user_ratings_total": 33,
      "city": "Edmonton",
      "website": null
    },
    {
      "name": "Primetime Donair & Poutine",
      "place_id": "ChIJKSvz_5gjoFMRwZjcPpG4mgw",
      "address": "11019 107 Ave NW, Edmonton",
      "lat": 53.5513057,
      "lon": -113.5116017,
      "rating": 4.5,
      "user_ratings_total": 314,
      "city": "Edmonton",
      "website": "https://primetimedonair.com/"
    },
    {
      "name": "PrimeTime Donair & Poutine",
      "place_id": "ChIJ5zlyu98joFMR3RHAj712N28",
      "address": "10364 Whyte Ave NW, Edmonton",
      "lat": 53.5182364,
      "lon": -113.4970421,
      "rating": 4.3,
      "user_ratings_total": 240,
      "city": "Edmonton",
      "website": "https://primetimedonair.com/"
    },
    {
      "name": "Poulet Rouge",
      "place_id": "ChIJxZMo7WcjoFMRdG4unwJDw-0",
      "address": "1 Kingsway Gdn Mall NW, Edmonton",
      "lat": 53.5623607,
      "lon": -113.5060182,
      "rating": 4.9,
      "user_ratings_total": 246,
      "city": "Edmonton",
      "website": "https://locations.poulet-rouge.ca/en/kingsway/"
    },
    {
      "name": "PrimeTime Donair & Poutine",
      "place_id": "ChIJ_dtdJYUloFMRI9eNlgHC36Q",
      "address": "12844 167 Ave NW, Edmonton",
      "lat": 53.6300936,
      "lon": -113.5451442,
      "rating": 4.5,
      "user_ratings_total": 278,
      "city": "Edmonton",
      "website": "https://primetimedonair.com/"
    },
    {
      "name": "The Next Act",
      "place_id": "ChIJRT843A8ioFMRLi_TBS_1SoY",
      "address": "8224 104 Street NW, Edmonton",
      "lat": 53.51883669999999,
      "lon": -113.4978369,
      "rating": 4.6,
      "user_ratings_total": 2938,
      "city": "Edmonton",
      "website": "http://www.nextactpub.com/"
    },
    {
      "name": "Queen Donair Jasper Avenue",
      "place_id": "ChIJ20B5eDcioFMRLu2OUS7b_6I",
      "address": "10827 Jasper Ave, Edmonton",
      "lat": 53.5408601,
      "lon": -113.5079024,
      "rating": 4.7,
      "user_ratings_total": 4131,
      "city": "Edmonton",
      "website": "https://www.queendonairjasperave.com/"
    },
    {
      "name": "PrimeTime Donair & Poutine",
      "place_id": "ChIJHVbkXb8foFMRrHv4acSkQx4",
      "address": "3004 B 106 St, Edmonton",
      "lat": 53.46223879999999,
      "lon": -113.5023703,
      "rating": 4.1,
      "user_ratings_total": 205,
      "city": "Edmonton",
      "website": "https://primetimedonair.com/"
    },
    {
      "name": "Streats St. Albert Kitchen",
      "place_id": "ChIJxYn4yUAnoFMRf93KHl5luiQ",
      "address": "3506 Tudor Glen Market, St. Albert",
      "lat": 53.6204803,
      "lon": -113.609094,
      "rating": 4.7,
      "user_ratings_total": 380,
      "city": "Edmonton",
      "website": "http://www.streatskitchens.com/order"
    },
    {
      "name": "PrimeTime Donair & Poutine",
      "place_id": "ChIJ4UvrHYwloFMRdhRXQjL4-9E",
      "address": "2 Hebert Rd #208, St. Albert",
      "lat": 53.6223548,
      "lon": -113.6062582,
      "rating": 4.2,
      "user_ratings_total": 88,
      "city": "Edmonton",
      "website": "https://primetimedonair.com/"
    },
    {
      "name": "Donair and Poutine House",
      "place_id": "ChIJ7xqYAzgjoFMRraxzBXeE0NY",
      "address": "8523 118 Ave NW, Edmonton",
      "lat": 53.5702047,
      "lon": -113.4726445,
      "rating": 4.5,
      "user_ratings_total": 218,
      "city": "Edmonton",
      "website": "https://www.donairandpoutinehouse.ca/"
    },
    {
      "name": "PrimeTime Donair & Poutine",
      "place_id": "ChIJZQCMjlM7oFMRjoJ5B0lkiBA",
      "address": "5227 167 Ave NW, Edmonton",
      "lat": 53.62743589999999,
      "lon": -113.4156741,
      "rating": 4.5,
      "user_ratings_total": 47,
      "city": "Edmonton",
      "website": "https://primetimedonair.com/"
    },
    {
      "name": "Sasha's Poutine",
      "place_id": "ChIJOXSV8v0EzkwRhluf7YiFtU8",
      "address": "35 York St, Ottawa",
      "lat": 45.4280536,
      "lon": -75.6937931,
      "rating": 4.4,
      "user_ratings_total": 182,
      "city": "Ottawa-Gatineau",
      "website": "https://m.facebook.com/pages/Sashas-Poutine-Stand/137976876256982"
    },
    {
      "name": "The Great Canadian Poutinerie - Poutine",
      "place_id": "ChIJxeQxLK4FzkwR4iMWw-2pRc8",
      "address": "311 Bank St, Ottawa",
      "lat": 45.4146841,
      "lon": -75.69562789999999,
      "rating": 4.7,
      "user_ratings_total": 791,
      "city": "Ottawa-Gatineau",
      "website": "http://tgcpoutinerie.com/"
    },
    {
      "name": "Elgin Street Diner",
      "place_id": "ChIJ6WGSbq8FzkwRwzjjP852EEE",
      "address": "374 Elgin St, Ottawa",
      "lat": 45.4149323,
      "lon": -75.687995,
      "rating": 4.4,
      "user_ratings_total": 6506,
      "city": "Ottawa-Gatineau",
      "website": "http://www.elginstreetdiner.com/"
    },
    {
      "name": "3 Cousins Shawarma & Poutine",
      "place_id": "ChIJmZHMmdMbzkwRV1pgfpWaEtk",
      "address": "369 Rue Main, Gatineau",
      "lat": 45.4910757,
      "lon": -75.65210669999999,
      "rating": 4.7,
      "user_ratings_total": 121,
      "city": "Ottawa-Gatineau",
      "website": null
    },
    {
      "name": "DB Poutine",
      "place_id": "ChIJxUkQNQAHzkwRHjdW04YHlq4",
      "address": "2121 Carling Ave, Ottawa",
      "lat": 45.3729059,
      "lon": -75.7681782,
      "rating": 4.6,
      "user_ratings_total": 66,
      "city": "Ottawa-Gatineau",
      "website": "https://dbpoutine.com/"
    },
    {
      "name": "La Poutinerie",
      "place_id": "ChIJM01zlW4HzkwRSRBahjy_OGo",
      "address": "1141 Baxter Rd, Ottawa",
      "lat": 45.3505554,
      "lon": -75.7819006,
      "rating": 3.8,
      "user_ratings_total": 184,
      "city": "Ottawa-Gatineau",
      "website": "http://lapoutinerie.ca/"
    },
    {
      "name": "Aroma Meze",
      "place_id": "ChIJuTUmOFMEzkwRhYNkxIDLrn8",
      "address": "239 Nepean St, Ottawa",
      "lat": 45.416838,
      "lon": -75.6996692,
      "rating": 4.6,
      "user_ratings_total": 1411,
      "city": "Ottawa-Gatineau",
      "website": "http://www.aromameze.com/"
    },
    {
      "name": "3 Brothers Shawarma & Poutine",
      "place_id": "ChIJaRcIYAIFzkwRw7897X0XxfA",
      "address": "160 Rideau St, Ottawa",
      "lat": 45.42692659999999,
      "lon": -75.6896859,
      "rating": 4.2,
      "user_ratings_total": 1289,
      "city": "Ottawa-Gatineau",
      "website": "https://www.3brothersshawarma.com/"
    },
    {
      "name": "The Brig Pub",
      "place_id": "ChIJ_zx67v0EzkwRh6UfeUqNVqw",
      "address": "23 York St, Ottawa",
      "lat": 45.4278821,
      "lon": -75.6942041,
      "rating": 4.5,
      "user_ratings_total": 1562,
      "city": "Ottawa-Gatineau",
      "website": "https://thebrigpub.com/"
    },
    {
      "name": "Big H Shawarma & Poutine",
      "place_id": "ChIJLb_thdAOzkwRVzeya-kXGUI",
      "address": "2450 Lancaster Rd, Ottawa",
      "lat": 45.401169,
      "lon": -75.61925,
      "rating": 4.7,
      "user_ratings_total": 1331,
      "city": "Ottawa-Gatineau",
      "website": "http://www.bigh.ca/"
    },
    {
      "name": "Say Cheese pizza & poutine",
      "place_id": "ChIJxc_WFgAGzkwRsQqYkZQNvZI",
      "address": "1581 Bank St a, Ottawa",
      "lat": 45.3794257,
      "lon": -75.6675088,
      "rating": 4.5,
      "user_ratings_total": 819,
      "city": "Ottawa-Gatineau",
      "website": "http://www.saycheesepizza.ca/"
    },
    {
      "name": "3 Brothers Shawarma & Poutine",
      "place_id": "ChIJq6rW6ggFzkwR-FFgbPalDEk",
      "address": "124 Osgoode St, Ottawa",
      "lat": 45.4238861,
      "lon": -75.680754,
      "rating": 4,
      "user_ratings_total": 579,
      "city": "Ottawa-Gatineau",
      "website": "https://www.3brothersshawarma.com/"
    },
    {
      "name": "Sir John A Pub",
      "place_id": "ChIJfcajLakFzkwR4Bec1SWzdw0",
      "address": "284 Elgin St, Ottawa",
      "lat": 45.416905,
      "lon": -75.68976599999999,
      "rating": 4.3,
      "user_ratings_total": 1598,
      "city": "Ottawa-Gatineau",
      "website": "https://www.sirjohna.ca/"
    },
    {
      "name": "Bank Shawarma & Poutine",
      "place_id": "ChIJpaIHCAEFzkwR6BRjKlc9iq0",
      "address": "1227 Bank St, Ottawa",
      "lat": 45.3914659,
      "lon": -75.68071619999999,
      "rating": 4.1,
      "user_ratings_total": 383,
      "city": "Ottawa-Gatineau",
      "website": "https://bankshawarma.com/"
    },
    {
      "name": "Pearson Street - Smash Burgers N\u2019 Melts",
      "place_id": "ChIJ2bVyXfZ5zkwRaB06gXM7Jtw",
      "address": "1460 Cyrville Rd, Gloucester",
      "lat": 45.4200834,
      "lon": -75.6190305,
      "rating": 4.7,
      "user_ratings_total": 483,
      "city": "Ottawa-Gatineau",
      "website": "http://www.pearsonstreetsmashburgers.ca/"
    },
    {
      "name": "Daly Burgers",
      "place_id": "ChIJwW-FegN06lIRUDXpCRD-K0M",
      "address": "619 Corydon Ave, Winnipeg",
      "lat": 49.872611,
      "lon": -97.1485003,
      "rating": 4.5,
      "user_ratings_total": 1024,
      "city": "Winnipeg",
      "website": "http://www.dalyburgers.com/"
    },
    {
      "name": "TuckOut",
      "place_id": "ChIJM0GzwMx16lIRjRDmGNjqei0",
      "address": "120 Lowson Cres #2, Winnipeg",
      "lat": 49.83619150000001,
      "lon": -97.2067575,
      "rating": 4.8,
      "user_ratings_total": 241,
      "city": "Winnipeg",
      "website": null
    },
    {
      "name": "Wok Box - St Vital Square",
      "place_id": "ChIJVWpZ6K536lIRhL26AGdHSww",
      "address": "827 Dakota St Unit 3, Winnipeg",
      "lat": 49.8307224,
      "lon": -97.1060746,
      "rating": 4.9,
      "user_ratings_total": 1235,
      "city": "Winnipeg",
      "website": "http://wokbox.ca/"
    },
    {
      "name": "The Grove Pub & Restaurant",
      "place_id": "ChIJvXd5kw106lIRQ6PVybhLrjc",
      "address": "164 Stafford St, Winnipeg",
      "lat": 49.8707243,
      "lon": -97.1633183,
      "rating": 4.5,
      "user_ratings_total": 1462,
      "city": "Winnipeg",
      "website": "http://www.the-grove.ca/"
    },
    {
      "name": "Elephant & Castle",
      "place_id": "ChIJ031Vc1dx6lIRBggxQ5fVsq0",
      "address": "350 St Mary Ave, Winnipeg",
      "lat": 49.8901084,
      "lon": -97.14362729999999,
      "rating": 4.3,
      "user_ratings_total": 1264,
      "city": "Winnipeg",
      "website": "https://www.elephantcastle.com/en/locations/mb/winnipeg/350-saint-mary-avenue"
    },
    {
      "name": "LOCAL Public Eatery Garry Street",
      "place_id": "ChIJFc9w54px6lIRquFLh4iXvFM",
      "address": "274 Garry St, Winnipeg",
      "lat": 49.8933275,
      "lon": -97.140542,
      "rating": 4.6,
      "user_ratings_total": 1420,
      "city": "Winnipeg",
      "website": "https://localpubliceatery.com/neighbourhoods/garry-st/"
    },
    {
      "name": "City South Pizza",
      "place_id": "ChIJrY9LNwBx6lIRoXba6LEbKxU",
      "address": "2501 McPhillips St #101, Winnipeg",
      "lat": 49.958191,
      "lon": -97.1424203,
      "rating": 4.8,
      "user_ratings_total": 364,
      "city": "Winnipeg",
      "website": null
    },
    {
      "name": "Friends Donair and Shawarma",
      "place_id": "ChIJoUVj58tz6lIR7X7BsqbP4_Q",
      "address": "884 Notre Dame Ave, Winnipeg",
      "lat": 49.903885,
      "lon": -97.1674884,
      "rating": 4.7,
      "user_ratings_total": 894,
      "city": "Winnipeg",
      "website": "https://friendsdonairandshawarma.blogspot.com/"
    },
    {
      "name": "Four Crowns Restaurant & Bar",
      "place_id": "ChIJw-gJvSVy6lIRgF_OkB2yiyA",
      "address": "1030 McPhillips St, Winnipeg",
      "lat": 49.9329463,
      "lon": -97.16605829999999,
      "rating": 4.2,
      "user_ratings_total": 1583,
      "city": "Winnipeg",
      "website": "http://www.fourcrowns.ca/"
    },
    {
      "name": "Oven Delight - Pizza & East Indian Restaurant",
      "place_id": "ChIJWzoJSwBx6lIRkOC7vkqFB0I",
      "address": "18 Kent Rd, Winnipeg",
      "lat": 49.90127409999999,
      "lon": -97.0840534,
      "rating": 4.6,
      "user_ratings_total": 256,
      "city": "Winnipeg",
      "website": "https://ovendelightrestaurant.com/?utm_source=google&utm_medium=maps&utm_campaign=website"
    },
    {
      "name": "Wok Box - Crestview",
      "place_id": "ChIJ8-Gqe1oN6lIRt7a8Fz111hs",
      "address": "185-3393 Portage Ave, Winnipeg",
      "lat": 49.8836823,
      "lon": -97.29846479999999,
      "rating": 4.7,
      "user_ratings_total": 798,
      "city": "Winnipeg",
      "website": "http://wokbox.ca/"
    },
    {
      "name": "Brazen Hall Kitchen & Brewery",
      "place_id": "ChIJw9deKCN06lIRPDH4K0qWdwA",
      "address": "800 Pembina Hwy, Winnipeg",
      "lat": 49.85738569999999,
      "lon": -97.1511932,
      "rating": 4.3,
      "user_ratings_total": 1725,
      "city": "Winnipeg",
      "website": "http://www.brazenhall.ca/"
    },
    {
      "name": "Aladin's Pizzeria & Shawarma Place",
      "place_id": "ChIJMY2pzRVz6lIR1iV-wlmPoqI",
      "address": "912 Portage Ave #103, Winnipeg",
      "lat": 49.884828,
      "lon": -97.1709032,
      "rating": 4.3,
      "user_ratings_total": 691,
      "city": "Winnipeg",
      "website": "https://aladins-pizzeria.com/?utm_source=google&utm_medium=maps&utm_campaign=website"
    },
    {
      "name": "Best Pizza & Donair",
      "place_id": "ChIJUePpQ8x16lIRGloiBkVNm9w",
      "address": "1469 Pembina Hwy, Winnipeg",
      "lat": 49.8360051,
      "lon": -97.1509988,
      "rating": 4.3,
      "user_ratings_total": 768,
      "city": "Winnipeg",
      "website": "https://bestpizzadonairmb.com/"
    },
    {
      "name": "Junior's Restaurant",
      "place_id": "ChIJXY8tV-126lIRObub8ieuofo",
      "address": "785 St Mary's Rd, Winnipeg",
      "lat": 49.8524099,
      "lon": -97.1116332,
      "rating": 3.6,
      "user_ratings_total": 955,
      "city": "Winnipeg",
      "website": "https://juniorswinnipeg.com/"
    },
    {
      "name": "Votre Poutine",
      "place_id": "ChIJrSTtNFuZuEwRSrrTUBRhS-M",
      "address": "5150 Bd de l'Ormi\u00e8re, Qu\u00e9bec",
      "lat": 46.8202382,
      "lon": -71.3319207,
      "rating": 3,
      "user_ratings_total": 191,
      "city": "Quebec City",
      "website": "http://votrepoutine.com/"
    },
    {
      "name": "Casse-Croute Chez Gaston",
      "place_id": "ChIJpYzP93GWuEwRJmgeaZs06D0",
      "address": "332 Rue Dorchester, Qu\u00e9bec",
      "lat": 46.81436739999999,
      "lon": -71.2275258,
      "rating": 4.5,
      "user_ratings_total": 1154,
      "city": "Quebec City",
      "website": "http://www.chezgastonquebec.ca/"
    },
    {
      "name": "SHAKER Cuisine & Mixologie Charlesbourg",
      "place_id": "ChIJu2Ka2UG9uEwRdspxgnMME7Y",
      "address": "8000 Boul. Henri-Bourassa #400, Qu\u00e9bec",
      "lat": 46.862972,
      "lon": -71.2679095,
      "rating": 4.3,
      "user_ratings_total": 1905,
      "city": "Quebec City",
      "website": "https://g.co/kgs/WXyYFk6"
    },
    {
      "name": "La Poutinerie",
      "place_id": "ChIJLVE_gTmXuEwRXOfEyKwvLDE",
      "address": "292 Rue Marie-de-l'Incarnation, Qu\u00e9bec",
      "lat": 46.8072031,
      "lon": -71.24456169999999,
      "rating": 3.8,
      "user_ratings_total": 635,
      "city": "Quebec City",
      "website": "https://lapoutinerie.com/"
    },
    {
      "name": "Pause V St-Jean",
      "place_id": "ChIJU4xyvKyXuEwRFliarotEM1Q",
      "address": "655 Rue Saint-Jean, Qu\u00e9bec",
      "lat": 46.8102697,
      "lon": -71.21917770000002,
      "rating": 4.4,
      "user_ratings_total": 323,
      "city": "Quebec City",
      "website": null
    },
    {
      "name": "Snack Bar Saint-Jean",
      "place_id": "ChIJIygGPHaWuEwRRF-PhXVbMN0",
      "address": "780 Rue Saint-Jean, Qu\u00e9bec",
      "lat": 46.8112576,
      "lon": -71.2174917,
      "rating": 4.2,
      "user_ratings_total": 2208,
      "city": "Quebec City",
      "website": "http://www.snackbarsaintjean.com/?lang=fr"
    },
    {
      "name": "Le Chic Shack",
      "place_id": "ChIJfc3wTNyVuEwRyI3LodoQiRw",
      "address": "15 Fort St, Qu\u00e9bec City",
      "lat": 46.8130894,
      "lon": -71.2052621,
      "rating": 4.2,
      "user_ratings_total": 3847,
      "city": "Quebec City",
      "website": "http://www.lechicshack.ca/"
    },
    {
      "name": "Restaurant Le Renversant",
      "place_id": "ChIJgXR-RQCVuEwRtFPb5c_H7r8",
      "address": "299 QC-136, Qu\u00e9bec",
      "lat": 46.8166994,
      "lon": -71.21160569999999,
      "rating": 4.9,
      "user_ratings_total": 152,
      "city": "Quebec City",
      "website": "https://www.instagram.com/le_renversant?igsh=ZnBubnN0NDB5NjB1"
    },
    {
      "name": "Casse-Cro\u00fbte Pierrot",
      "place_id": "ChIJg0bp1xWWuEwRNYIJLXN8qDU",
      "address": "1996 1re Av., Qu\u00e9bec",
      "lat": 46.8312232,
      "lon": -71.23874359999999,
      "rating": 4.1,
      "user_ratings_total": 2367,
      "city": "Quebec City",
      "website": "http://www.cassecroutepierrot.com/"
    },
    {
      "name": "Restaurant Poutineville Saint-Roch",
      "place_id": "ChIJG39BfnSWuEwRcIlW8hoMlI8",
      "address": "735 Rue Saint-Joseph E, Qu\u00e9bec",
      "lat": 46.8156226,
      "lon": -71.21985889999999,
      "rating": 4.5,
      "user_ratings_total": 4649,
      "city": "Quebec City",
      "website": "https://poutineville.com/restaurants/poutineville-saint-roch/"
    },
    {
      "name": "Restaurant Poutineville Vieux Qu\u00e9bec",
      "place_id": "ChIJFVVQNOaVuEwRcffO-cgOgDI",
      "address": "810 Boulevard Honor\u00e9-Mercier, Qu\u00e9bec City",
      "lat": 46.811721,
      "lon": -71.2157062,
      "rating": 4.6,
      "user_ratings_total": 4296,
      "city": "Quebec City",
      "website": "https://poutineville.com/restaurants/poutineville-vieux-quebec/"
    },
    {
      "name": "La Korrigane - Brasserie artisanale",
      "place_id": "ChIJhx2ZjXGWuEwRa1n5jp5XdB0",
      "address": "380 Rue Dorchester, Qu\u00e9bec",
      "lat": 46.8138809,
      "lon": -71.2269141,
      "rating": 4.5,
      "user_ratings_total": 983,
      "city": "Quebec City",
      "website": "https://korrigane.ca/"
    },
    {
      "name": "Veravin 2.0",
      "place_id": "ChIJEzT9euCVuEwR5UZK1-hRpcY",
      "address": "233 Rue Saint-Paul, Qu\u00e9bec",
      "lat": 46.816861,
      "lon": -71.209423,
      "rating": 4.4,
      "user_ratings_total": 619,
      "city": "Quebec City",
      "website": "http://www.veravin20.ca/"
    },
    {
      "name": "Casse-Cou",
      "place_id": "ChIJxShovdyVuEwR-avIxmJTHRQ",
      "address": "90 Rue du Petit Champlain, Qu\u00e9bec",
      "lat": 46.8109937,
      "lon": -71.20352969999999,
      "rating": 4.1,
      "user_ratings_total": 497,
      "city": "Quebec City",
      "website": "https://www.quartierpetitchamplain.com/commercants/resto-casse-cou/"
    },
    {
      "name": "Ninkasi Bar & Bistro",
      "place_id": "ChIJh2UzPXaWuEwRjXInca4uaxA",
      "address": "811 Rue Saint-Jean #801, Qu\u00e9bec",
      "lat": 46.81130839999999,
      "lon": -71.21699459999999,
      "rating": 4.3,
      "user_ratings_total": 1484,
      "city": "Quebec City",
      "website": "http://www.laninkasi.ca/"
    },
    {
      "name": "Grillies ( Hamilton )",
      "place_id": "ChIJcVEchKyZLIgRSGgbZjxvh_Y",
      "address": "293 Kenilworth Ave N, Hamilton",
      "lat": 43.249085,
      "lon": -79.806365,
      "rating": 4.5,
      "user_ratings_total": 103,
      "city": "Hamilton",
      "website": "https://www.grillies.ca/"
    },
    {
      "name": "No Bull Burgers - Burlington",
      "place_id": "ChIJAUYAr7GfLIgRnZKGym72fUY",
      "address": "357 Brant St, Burlington",
      "lat": 43.324858,
      "lon": -79.7963886,
      "rating": 4.8,
      "user_ratings_total": 18,
      "city": "Hamilton",
      "website": "http://www.nobullburgers.ca/"
    },
    {
      "name": "Smoke\u2019s Poutinerie Hamilton",
      "place_id": "ChIJh9JSdXmbLIgRWekY5-duBzk",
      "address": "112 George St, Hamilton",
      "lat": 43.25844730000001,
      "lon": -79.87865010000002,
      "rating": 4.2,
      "user_ratings_total": 1117,
      "city": "Hamilton",
      "website": "http://smokespoutinerie.com/"
    },
    {
      "name": "Cleavedon Grill",
      "place_id": "ChIJ9_F5w2xhK4gR2g40141IyUE",
      "address": "3300 Fairview St Unit#: 9, Burlington",
      "lat": 43.3532473,
      "lon": -79.78623639999999,
      "rating": 4.4,
      "user_ratings_total": 177,
      "city": "Hamilton",
      "website": "https://cleavedongrill.com/"
    },
    {
      "name": "A1 poutine and wings",
      "place_id": "ChIJnQEu0pqZLIgRkEFXFw6Zd-c",
      "address": "1279 Main St E, Hamilton",
      "lat": 43.2415809,
      "lon": -79.8151079,
      "rating": 4.7,
      "user_ratings_total": 361,
      "city": "Hamilton",
      "website": "https://a1poutineandwings.ca/"
    },
    {
      "name": "The King Sandwich",
      "place_id": "ChIJl_U6qi2bLIgRpTb1prT3i3Y",
      "address": "310 King St E, Hamilton",
      "lat": 43.2537043,
      "lon": -79.8601279,
      "rating": 5,
      "user_ratings_total": 352,
      "city": "Hamilton",
      "website": null
    },
    {
      "name": "HAMBRGR Crown Point",
      "place_id": "ChIJU_byJkWZLIgRgEyoDxIQrn8",
      "address": "207 Ottawa St N, Hamilton",
      "lat": 43.2483333,
      "lon": -79.8175528,
      "rating": 4.6,
      "user_ratings_total": 3275,
      "city": "Hamilton",
      "website": "http://www.hambrgr.ca/"
    },
    {
      "name": "The Pheasant Plucker",
      "place_id": "ChIJG80bapybLIgRpLBVKYkM8g8",
      "address": "20 Augusta St, Hamilton",
      "lat": 43.2519042,
      "lon": -79.8702217,
      "rating": 4.3,
      "user_ratings_total": 802,
      "city": "Hamilton",
      "website": "http://www.pheasantplucker.ca/"
    },
    {
      "name": "Checkered Flag Bar & Grill",
      "place_id": "ChIJva-TnCuQLIgRh3yJgaweFEY",
      "address": "3761 Upper James St, Mount Hope",
      "lat": 43.140351,
      "lon": -79.9212151,
      "rating": 4.4,
      "user_ratings_total": 445,
      "city": "Hamilton",
      "website": "https://m.facebook.com/Checkeredflagbarandgrill/"
    },
    {
      "name": "Philthy Philly's Burlington",
      "place_id": "ChIJF70N0UNhK4gRdMJAnodi88U",
      "address": "2405 Fairview St #2, Burlington",
      "lat": 43.3461069,
      "lon": -79.7996866,
      "rating": 4.6,
      "user_ratings_total": 535,
      "city": "Hamilton",
      "website": "https://philthyphillys.com/"
    },
    {
      "name": "The French Fry Guy",
      "place_id": "ChIJU5vSHK1hK4gRRPjcAI3bF5A",
      "address": "4305 Fairview St, Burlington",
      "lat": 43.3678164,
      "lon": -79.7702446,
      "rating": 4.4,
      "user_ratings_total": 413,
      "city": "Hamilton",
      "website": null
    },
    {
      "name": "Sana Grill",
      "place_id": "ChIJi1zhSW2ZLIgR100Y0Nicvtw",
      "address": "1900 King St E, Hamilton",
      "lat": 43.230963,
      "lon": -79.80657339999999,
      "rating": 4.3,
      "user_ratings_total": 833,
      "city": "Hamilton",
      "website": "https://www.sanagrill.ca/"
    },
    {
      "name": "Boardwalk Burgers - Hamilton",
      "place_id": "ChIJn9cdqeCFLIgR4DobNDq9Lr4",
      "address": "1685 Main St W, Hamilton",
      "lat": 43.2569702,
      "lon": -79.9340857,
      "rating": 4.3,
      "user_ratings_total": 318,
      "city": "Hamilton",
      "website": "https://www.boardwalkburgers.ca/"
    },
    {
      "name": "Sana Grill Stoney Creek.",
      "place_id": "ChIJ0ZkiLGGiLIgRbMHVTKQ_cV8",
      "address": "436 Hwy 8, Stoney Creek",
      "lat": 43.2174069,
      "lon": -79.7210731,
      "rating": 4.6,
      "user_ratings_total": 1281,
      "city": "Hamilton",
      "website": "https://www.sanagrill.ca/"
    },
    {
      "name": "HAMBRGR King William",
      "place_id": "ChIJb4Sk94SbLIgRe3CQtP2fags",
      "address": "49 King William St, Hamilton",
      "lat": 43.2571874,
      "lon": -79.8669227,
      "rating": 4.5,
      "user_ratings_total": 3385,
      "city": "Hamilton",
      "website": "https://hambrgr.ca/"
    },
    {
      "name": "Shawarma Trap",
      "place_id": "ChIJjfrHcML1K4gRB4YvTKsRheM",
      "address": "60 Frederick St Unit 101, Kitchener",
      "lat": 43.4505406,
      "lon": -80.4869583,
      "rating": 4.9,
      "user_ratings_total": 229,
      "city": "Kitchener-Waterloo",
      "website": "https://shawarmatrap.com/"
    },
    {
      "name": "Burgers n' Fries Forever",
      "place_id": "ChIJmxXWTPKJK4gRy4s-rEzz54M",
      "address": "480 Hespeler Rd Unit 9, Cambridge",
      "lat": 43.3981182,
      "lon": -80.32653309999999,
      "rating": 4.5,
      "user_ratings_total": 121,
      "city": "Kitchener-Waterloo",
      "website": "https://burgersnfriesforever.com/"
    },
    {
      "name": "Mike\u2019s poutine house",
      "place_id": "ChIJY4tKGADzK4gRjXlwgqo_Ff8",
      "address": "308 King St N unit 116, Waterloo",
      "lat": 43.4783254,
      "lon": -80.5247898,
      "rating": 4.9,
      "user_ratings_total": 52,
      "city": "Kitchener-Waterloo",
      "website": "https://mikespoutinehouse.ca/"
    },
    {
      "name": "The Lab Street Eats",
      "place_id": "ChIJV0FbTP31K4gRYcLtrvoxhaU",
      "address": "105 Victoria St S, Kitchener",
      "lat": 43.4499982,
      "lon": -80.5005236,
      "rating": 4.8,
      "user_ratings_total": 690,
      "city": "Kitchener-Waterloo",
      "website": null
    },
    {
      "name": "Philthy Philly's- Waterloo",
      "place_id": "ChIJ2Sg8FWDzK4gRls2WD4fgb90",
      "address": "247 King St N, Waterloo",
      "lat": 43.4761319,
      "lon": -80.52589259999999,
      "rating": 4.6,
      "user_ratings_total": 1361,
      "city": "Kitchener-Waterloo",
      "website": "http://philthyphillys.com/"
    },
    {
      "name": "Chef On Call",
      "place_id": "ChIJn25ny6LzK4gRxUnGsU_3vDo",
      "address": "130 Columbia St W #812, Waterloo",
      "lat": 43.478115,
      "lon": -80.537481,
      "rating": 4.6,
      "user_ratings_total": 1646,
      "city": "Kitchener-Waterloo",
      "website": "https://www.chefoncalldelivery.com/"
    },
    {
      "name": "Ace Shawarma & Burgers",
      "place_id": "ChIJUyxb-_L0K4gRKt_wo1o_0xE",
      "address": "82 King St W, Kitchener",
      "lat": 43.4505418,
      "lon": -80.49064949999999,
      "rating": 4.3,
      "user_ratings_total": 2292,
      "city": "Kitchener-Waterloo",
      "website": "http://www.aceshawarma.com/"
    },
    {
      "name": "Beertown Public House Cambridge",
      "place_id": "ChIJjxzPF7SJK4gRqtd2id-jHMc",
      "address": "561 Hespeler Rd #1a, Cambridge",
      "lat": 43.4037483,
      "lon": -80.32591169999999,
      "rating": 4.4,
      "user_ratings_total": 2254,
      "city": "Kitchener-Waterloo",
      "website": "http://www.beertown.ca/"
    },
    {
      "name": "Molly Bloom's Irish Pub",
      "place_id": "ChIJQdQ9MgH0K4gRIWBaOwSNycE",
      "address": "University Shops Plaza, 170 University Ave W, Waterloo",
      "lat": 43.4729838,
      "lon": -80.5372776,
      "rating": 4.2,
      "user_ratings_total": 943,
      "city": "Kitchener-Waterloo",
      "website": "http://www.mollyblooms.ca/"
    },
    {
      "name": "GC Burger Waterloo",
      "place_id": "ChIJQ4KsZ8_zK4gRnGkl1tewCqE",
      "address": "308 King St N #101, Waterloo",
      "lat": 43.4786695,
      "lon": -80.52518789999999,
      "rating": 4.6,
      "user_ratings_total": 326,
      "city": "Kitchener-Waterloo",
      "website": "https://www.thegcburger.com/"
    },
    {
      "name": "The Lion Brewery Restaurant",
      "place_id": "ChIJ68K34Qz0K4gRwMl_S0RcK20",
      "address": "59 King St N, Waterloo",
      "lat": 43.4669852,
      "lon": -80.5231277,
      "rating": 4.2,
      "user_ratings_total": 306,
      "city": "Kitchener-Waterloo",
      "website": "http://huetherhotel.com/"
    },
    {
      "name": "Meltwich Food Co. Waterloo",
      "place_id": "ChIJVw_lR_TzK4gRdswdRO7dfmA",
      "address": "255 King St N #2, Waterloo",
      "lat": 43.47704100000001,
      "lon": -80.52559500000001,
      "rating": 4.3,
      "user_ratings_total": 669,
      "city": "Kitchener-Waterloo",
      "website": "http://www.meltwich.com/"
    },
    {
      "name": "The Crazy Canuck Kitchener",
      "place_id": "ChIJ_QyJsPL0K4gROrkDiIFgPfc",
      "address": "141 Ontario St N, Kitchener",
      "lat": 43.4516334,
      "lon": -80.4889831,
      "rating": 4.5,
      "user_ratings_total": 524,
      "city": "Kitchener-Waterloo",
      "website": "http://www.thecrazycanuck.ca/"
    },
    {
      "name": "Beertown Public House Waterloo",
      "place_id": "ChIJy4uAuxL0K4gR4GQtmdL7XK8",
      "address": "Square, 75 King St S Unit 37, Waterloo",
      "lat": 43.4639678,
      "lon": -80.5227484,
      "rating": 4.4,
      "user_ratings_total": 3794,
      "city": "Kitchener-Waterloo",
      "website": "http://www.beertown.ca/"
    },
    {
      "name": "Aunty's Kitchen - Waterloo",
      "place_id": "ChIJHwYDnPXzK4gRXtqYfXMzDp0",
      "address": "160 University Ave W, Waterloo",
      "lat": 43.4722018,
      "lon": -80.53732629999999,
      "rating": 4.2,
      "user_ratings_total": 2447,
      "city": "Kitchener-Waterloo",
      "website": "http://www.auntyskitchen.ca/"
    },
    {
      "name": "Philthy Philly's- London",
      "place_id": "ChIJy5IPyuDxLogRP6La0wKGzFA",
      "address": "685 Richmond St, London",
      "lat": 42.9928305,
      "lon": -81.2521805,
      "rating": 4.3,
      "user_ratings_total": 653,
      "city": "London",
      "website": "https://philthyphillys.order-online.ai/#/?service=takeout"
    },
    {
      "name": "Chef On Call",
      "place_id": "ChIJNa-10rTtLogRwiUXr5sWT3U",
      "address": "1030 Adelaide St N #9A, London",
      "lat": 43.0066934,
      "lon": -81.238632,
      "rating": 4.7,
      "user_ratings_total": 1215,
      "city": "London",
      "website": "https://www.chefoncalldelivery.com/"
    },
    {
      "name": "Stevie's Chicken Joint",
      "place_id": "ChIJ86OFX1vzLogRHSuwbsuBii4",
      "address": "551 Richmond St. (Inside Mingle, London",
      "lat": 42.9884953,
      "lon": -81.2510659,
      "rating": 3.5,
      "user_ratings_total": 119,
      "city": "London",
      "website": "http://stevieschicken.com/"
    },
    {
      "name": "Frank & Furter's Restaurant and Bar",
      "place_id": "ChIJx2qZmp3zLogRd4mC8DDC9yY",
      "address": "172 King St, London",
      "lat": 42.9827582,
      "lon": -81.2486418,
      "rating": 3.9,
      "user_ratings_total": 423,
      "city": "London",
      "website": "http://frankandfurters.com/"
    },
    {
      "name": "Burger Factory",
      "place_id": "ChIJ0QL5OHPxLogR17KuyJy26-w",
      "address": "276 Wharncliffe Rd N, London",
      "lat": 42.9929476,
      "lon": -81.2658641,
      "rating": 4.4,
      "user_ratings_total": 1051,
      "city": "London",
      "website": "https://burgerfactorylondon.ca/"
    },
    {
      "name": "Ale House London",
      "place_id": "ChIJM_itzwTyLogRcuNiTE7CVtw",
      "address": "288 Dundas St, London",
      "lat": 42.985366,
      "lon": -81.2444673,
      "rating": 3.8,
      "user_ratings_total": 1114,
      "city": "London",
      "website": "https://londonalehouse.com/"
    },
    {
      "name": "Shelby's Legendary Shawarma",
      "place_id": "ChIJkSKGZhnyLogRtFbikxYfKmk",
      "address": "223 Horton St E, London",
      "lat": 42.9793779,
      "lon": -81.2447997,
      "rating": 4.5,
      "user_ratings_total": 5152,
      "city": "London",
      "website": "https://www.shelbys.ca/"
    },
    {
      "name": "Beertown - Masonville London",
      "place_id": "ChIJ81JKhF3uLogRnXlaJiMFyHM",
      "address": "109 Fanshawe Park Rd E, London",
      "lat": 43.028062,
      "lon": -81.2741108,
      "rating": 4.5,
      "user_ratings_total": 2414,
      "city": "London",
      "website": "http://www.beertown.ca/"
    },
    {
      "name": "Burger Burger",
      "place_id": "ChIJf3eC2wHyLogR_4v5ssGvxqY",
      "address": "633 Richmond St, London",
      "lat": 42.9915362,
      "lon": -81.251316,
      "rating": 4.2,
      "user_ratings_total": 1222,
      "city": "London",
      "website": "https://www.burgerburger.ca/"
    },
    {
      "name": "Mr.Jack's",
      "place_id": "ChIJ-TQIVhrxLogR5Kk1JXx2nUo",
      "address": "11 Base Line Rd W #4, London",
      "lat": 42.95862380000001,
      "lon": -81.2596652,
      "rating": 4,
      "user_ratings_total": 184,
      "city": "London",
      "website": "https://www.mrjacks.ca/"
    },
    {
      "name": "The Bungalow",
      "place_id": "ChIJbRpob_3tLogRj_jlueqRn1o",
      "address": "910 Waterloo St, London",
      "lat": 43.00292,
      "lon": -81.25097939999999,
      "rating": 4.4,
      "user_ratings_total": 1893,
      "city": "London",
      "website": null
    },
    {
      "name": "Winks Eatery",
      "place_id": "ChIJm1ddFALyLogRM2K0Q54HLfQ",
      "address": "551 Richmond St #12, London",
      "lat": 42.9890179,
      "lon": -81.2511684,
      "rating": 4.4,
      "user_ratings_total": 1525,
      "city": "London",
      "website": "http://www.winkseatery.com/"
    },
    {
      "name": "Stacked Burger and Chicken",
      "place_id": "ChIJe1FgNV_zLogROzhBw42_54Q",
      "address": "125 King St, London",
      "lat": 42.982017,
      "lon": -81.25043199999999,
      "rating": 4.6,
      "user_ratings_total": 220,
      "city": "London",
      "website": "http://www.stackedburger.ca/"
    },
    {
      "name": "Pickle Barrel",
      "place_id": "ChIJYxnuTunzLogRW0Lhz3sku2o",
      "address": "387 Wellington Rd, London",
      "lat": 42.9589635,
      "lon": -81.2310723,
      "rating": 4.5,
      "user_ratings_total": 2599,
      "city": "London",
      "website": "https://www.picklebarrel.ca/en/locations/on/london/387-wellington-rd.-south"
    },
    {
      "name": "BTRMLK",
      "place_id": "ChIJAVc8lAvxLogR_1bItsMb_84",
      "address": "275 Wharncliffe Rd N, London",
      "lat": 42.9928805,
      "lon": -81.2646578,
      "rating": 4.6,
      "user_ratings_total": 1552,
      "city": "London",
      "website": "http://btrmlk.ca/"
    },
    {
      "name": "420 Poutine House",
      "place_id": "ChIJ8Y5DORpzj1QRdSSDa1kBEbo",
      "address": "2950 Douglas St #165, Victoria",
      "lat": 48.4431974,
      "lon": -123.3702321,
      "rating": 4.6,
      "user_ratings_total": 39,
      "city": "Victoria",
      "website": "https://www.palagio.ca/420housepoutine.html"
    },
    {
      "name": "Fatburger Victoria",
      "place_id": "ChIJnzduSIV0j1QRm-iFzkhwBuo",
      "address": "1209 Douglas St, Victoria",
      "lat": 48.4256943,
      "lon": -123.3648537,
      "rating": 4.2,
      "user_ratings_total": 1213,
      "city": "Victoria",
      "website": "https://www.fatburgercanada.com/locations/fatburger-victoria"
    },
    {
      "name": "Fatburger Langford",
      "place_id": "ChIJy0WbmbQNj1QRfkvbwM0vufs",
      "address": "3004 Merchant Wy #102, Langford",
      "lat": 48.4395446,
      "lon": -123.5111044,
      "rating": 4.2,
      "user_ratings_total": 696,
      "city": "Victoria",
      "website": "https://www.fatburgercanada.com/locations/fatburger-langford/"
    },
    {
      "name": "Bin 4 Burger Lounge",
      "place_id": "ChIJ0eIs45tzj1QRFnBDHxbYn88",
      "address": "3271 Maple St, Victoria",
      "lat": 48.4505357,
      "lon": -123.3684471,
      "rating": 4.4,
      "user_ratings_total": 2916,
      "city": "Victoria",
      "website": "http://www.bin4burgerlounge.com/"
    },
    {
      "name": "Bin 4 Burger Lounge",
      "place_id": "ChIJo84EMY90j1QRc1_M3vZH008",
      "address": "911 Yates St, Victoria",
      "lat": 48.4250841,
      "lon": -123.3569736,
      "rating": 4.3,
      "user_ratings_total": 2213,
      "city": "Victoria",
      "website": "http://www.bin4burgerlounge.com/"
    },
    {
      "name": "Mary Brown's Chicken",
      "place_id": "ChIJ4btpY71zj1QR2f_r4pth_84",
      "address": "100 Aldersmith Pl Unit C5, Victoria",
      "lat": 48.44901580000001,
      "lon": -123.4265895,
      "rating": 4.4,
      "user_ratings_total": 1053,
      "city": "Victoria",
      "website": "https://marybrowns.com/locations/"
    },
    {
      "name": "Red Robin Gourmet Burgers and Brews",
      "place_id": "ChIJtzM29Jxzj1QR73BMdD7MOmw",
      "address": "800 Tolmie Ave, Victoria",
      "lat": 48.4483646,
      "lon": -123.3687815,
      "rating": 4.2,
      "user_ratings_total": 4559,
      "city": "Victoria",
      "website": "https://www.redrobin.com/locations/bc/victoria/victoria-276?store_id=276&store_type=franchise&utm_campaign=local-business-listing&utm_content=website-link&utm_medium=organic-seach&utm_source=google-business-profile"
    },
    {
      "name": "Boardwalk Burgers - Victoria",
      "place_id": "ChIJdXkzpMx1j1QRkfkZladQPw8",
      "address": "Bay Centre Shopping Centre, 228C, 1150 Douglas St Floor 1, Victoria",
      "lat": 48.4248582,
      "lon": -123.3663737,
      "rating": 4.5,
      "user_ratings_total": 287,
      "city": "Victoria",
      "website": "https://www.boardwalkburgers.ca/"
    },
    {
      "name": "Kebab On Fire",
      "place_id": "ChIJcUK-tAt1j1QRnazgSFKo3uQ",
      "address": "890 Government St, Victoria",
      "lat": 48.42338059999999,
      "lon": -123.3684316,
      "rating": 4.8,
      "user_ratings_total": 1769,
      "city": "Victoria",
      "website": "https://www.kebabonfire.ca/"
    },
    {
      "name": "Belleville's",
      "place_id": "ChIJEYdNZpd0j1QR22Sp7idsimw",
      "address": "427 Belleville St., Victoria",
      "lat": 48.421068,
      "lon": -123.373162,
      "rating": 4,
      "user_ratings_total": 1469,
      "city": "Victoria",
      "website": "http://www.bellevilles.ca/"
    },
    {
      "name": "Bartholomew's Public House",
      "place_id": "ChIJ3Xo2WJB0j1QR7L5G0KkETqI",
      "address": "777 Douglas St, Victoria",
      "lat": 48.421789,
      "lon": -123.3653133,
      "rating": 4.3,
      "user_ratings_total": 1509,
      "city": "Victoria",
      "website": "http://www.bartholomewspub.com/"
    },
    {
      "name": "Irish Times Pub",
      "place_id": "ChIJfVwZ25p0j1QRh2kPEPiD9rI",
      "address": "1200 Government St, Victoria",
      "lat": 48.4258039,
      "lon": -123.3678225,
      "rating": 4.5,
      "user_ratings_total": 5157,
      "city": "Victoria",
      "website": "http://www.irishtimespub.ca/"
    },
    {
      "name": "Palagio Pizza",
      "place_id": "ChIJSeklf3hzj1QRvfXtEnPWq0I",
      "address": "2950 Douglas St #165, Victoria",
      "lat": 48.4431974,
      "lon": -123.3702321,
      "rating": 3.8,
      "user_ratings_total": 532,
      "city": "Victoria",
      "website": "http://www.palagio.ca/"
    },
    {
      "name": "Big Wheel Burger GATEWAY",
      "place_id": "ChIJxVz2iKNzj1QR64BOHPcjaHw",
      "address": "771 Vernon Ave #703, Victoria",
      "lat": 48.457978,
      "lon": -123.3768128,
      "rating": 4.4,
      "user_ratings_total": 1283,
      "city": "Victoria",
      "website": "http://bigwheelburger.com/"
    },
    {
      "name": "Fork'n Pork - Victoria",
      "place_id": "ChIJSY1jFpt0j1QR0bV4BHm5G3g",
      "address": "1221 Wharf St, Victoria",
      "lat": 48.42663169999999,
      "lon": -123.3700437,
      "rating": 4.1,
      "user_ratings_total": 115,
      "city": "Victoria",
      "website": null
    },
    {
      "name": "Willy\u2019s",
      "place_id": "ChIJG0FBQTMiWksRVnSkH-1A_gc",
      "address": "5239 Blowers St, Halifax",
      "lat": 44.6450971,
      "lon": -63.5741777,
      "rating": 4.6,
      "user_ratings_total": 585,
      "city": "Halifax",
      "website": "http://www.willysfreshcut.ca/"
    },
    {
      "name": "The Brown Hound Public House",
      "place_id": "ChIJ9S-YIX4jWksRWhZB7QQTalo",
      "address": "1450 Ironstone Ln, Halifax",
      "lat": 44.6438064,
      "lon": -63.57047739999999,
      "rating": 4.7,
      "user_ratings_total": 691,
      "city": "Halifax",
      "website": "http://thebrownhound.ca/"
    },
    {
      "name": "The Maxwell's Plum",
      "place_id": "ChIJUYDFLzMiWksRYpClOJbOW6M",
      "address": "1600 Grafton St, Halifax",
      "lat": 44.6457268,
      "lon": -63.57493530000001,
      "rating": 4.1,
      "user_ratings_total": 1288,
      "city": "Halifax",
      "website": "https://maxwellsplum.ca/"
    },
    {
      "name": "Freeman's Little New York",
      "place_id": "ChIJuUIeGCoiWksRZEI7gtyT_D4",
      "address": "6092 Quinpool Rd, Halifax",
      "lat": 44.64642,
      "lon": -63.59301360000001,
      "rating": 4.2,
      "user_ratings_total": 1412,
      "city": "Halifax",
      "website": "http://www.freemanspizza.ca/"
    },
    {
      "name": "The Pint Public House - Halifax",
      "place_id": "ChIJQ1iUSDMiWksRI_ErdBWt6VI",
      "address": "1575 Argyle St, Halifax",
      "lat": 44.64556779999999,
      "lon": -63.57385739999999,
      "rating": 4,
      "user_ratings_total": 1241,
      "city": "Halifax",
      "website": "https://thepinthfx.com/"
    },
    {
      "name": "Charger Gourmet Burgers & Poutine ( HALAL )",
      "place_id": "ChIJ_dXStA0jWksRpU7cgqIV3uo",
      "address": "6443 Quinpool Rd, Halifax",
      "lat": 44.6444371,
      "lon": -63.6015086,
      "rating": 4,
      "user_ratings_total": 275,
      "city": "Halifax",
      "website": "http://www.chargerburger.com/"
    },
    {
      "name": "Darrell's Restaurant",
      "place_id": "ChIJs88KuDciWksRrQDYcuzjk9I",
      "address": "5576 Fenwick St, Halifax",
      "lat": 44.6378156,
      "lon": -63.5737396,
      "rating": 4.6,
      "user_ratings_total": 2198,
      "city": "Halifax",
      "website": "http://www.darrellsrestaurants.com/"
    },
    {
      "name": "McKelvie's Restaurant",
      "place_id": "ChIJNydPiswjWksRHJxUPyaKMMs",
      "address": "1680 Lower Water St, Halifax",
      "lat": 44.64764,
      "lon": -63.5717092,
      "rating": 4.4,
      "user_ratings_total": 1291,
      "city": "Halifax",
      "website": "http://mckelvies.com/"
    },
    {
      "name": "CHKN CHOP",
      "place_id": "ChIJRSqGKHkhWksRQ9jcjs8Ie10",
      "address": "6041 North St, Halifax",
      "lat": 44.6542813,
      "lon": -63.5958531,
      "rating": 4.6,
      "user_ratings_total": 955,
      "city": "Halifax",
      "website": "http://www.chknchop.com/"
    },
    {
      "name": "The Stubborn Goat Gastropub",
      "place_id": "ChIJa0VyOTMiWksRmxWalGxBl88",
      "address": "1580 Argyle St, Halifax",
      "lat": 44.6454812,
      "lon": -63.5741215,
      "rating": 4.4,
      "user_ratings_total": 2342,
      "city": "Halifax",
      "website": "http://www.stubborngoat.ca/"
    },
    {
      "name": "Your Father's Moustache",
      "place_id": "ChIJ26DsfzEiWksRixQ-r4nhvAE",
      "address": "5686 Spring Garden Rd, Halifax",
      "lat": 44.6422604,
      "lon": -63.5792122,
      "rating": 4.3,
      "user_ratings_total": 2347,
      "city": "Halifax",
      "website": "http://yourfathersmoustache.ca/"
    },
    {
      "name": "Cheese Curds Gourmet Burgers + Poutinerie",
      "place_id": "ChIJ56YeHbAjWksRDA9bamFjLLo",
      "address": "380 Pleasant St, Dartmouth",
      "lat": 44.64816130000001,
      "lon": -63.5457949,
      "rating": 4.4,
      "user_ratings_total": 909,
      "city": "Halifax",
      "website": "http://www.cheesecurdsburgers.com/"
    },
    {
      "name": "Economy Shoe Shop",
      "place_id": "ChIJ3TND0swjWksRVpXqnORSDmM",
      "address": "1663 Argyle St, Halifax",
      "lat": 44.64643359999999,
      "lon": -63.57434,
      "rating": 4,
      "user_ratings_total": 737,
      "city": "Halifax",
      "website": "http://www.economyshoeshop.ca/"
    },
    {
      "name": "Henry House",
      "place_id": "ChIJ5apWBjYiWksRI6a12h3rADs",
      "address": "1222 Barrington St, Halifax",
      "lat": 44.6403823,
      "lon": -63.5707445,
      "rating": 4.6,
      "user_ratings_total": 1539,
      "city": "Halifax",
      "website": "http://henryhouse.ca/"
    },
    {
      "name": "Cheese Curds Gourmet Burgers + Poutinerie",
      "place_id": "ChIJZ3naeFcgWksRN4cee4ylZlg",
      "address": "277 Lacewood Dr, Halifax",
      "lat": 44.663626,
      "lon": -63.6558128,
      "rating": 4.2,
      "user_ratings_total": 604,
      "city": "Halifax",
      "website": "http://www.cheesecurdsburgers.com/"
    },
    {
      "name": "Mean Poutine Ajax",
      "place_id": "ChIJhcUepOIh1YkRFdhTZYXAyFA",
      "address": "5 Rossland Rd E, Ajax",
      "lat": 43.8800307,
      "lon": -79.0247308,
      "rating": 4.1,
      "user_ratings_total": 200,
      "city": "Oshawa",
      "website": "http://www.meanpoutine.ca/"
    },
    {
      "name": "No Cap Wings - Ajax",
      "place_id": "ChIJVRCpQKwh1YkR6ftr_lNJmHo",
      "address": "1901 Harwood Ave N Unit 33, Ajax",
      "lat": 43.89191,
      "lon": -79.03833610000001,
      "rating": 4.7,
      "user_ratings_total": 779,
      "city": "Oshawa",
      "website": "https://nocapwings.ca/"
    },
    {
      "name": "Habibz Corner",
      "place_id": "ChIJzY808N4d1YkRwC5WLDPOniU",
      "address": "532 Simcoe St S, Oshawa",
      "lat": 43.88361630000001,
      "lon": -78.8573692,
      "rating": 4.7,
      "user_ratings_total": 3181,
      "city": "Oshawa",
      "website": "https://habibzcorner.com/"
    },
    {
      "name": "Philthy Philly's",
      "place_id": "ChIJdY7xeN0h1YkR1WGkoSj21yM",
      "address": "280 Rossland Rd E Unit 1, Ajax",
      "lat": 43.8825493,
      "lon": -79.0195205,
      "rating": 4.7,
      "user_ratings_total": 421,
      "city": "Oshawa",
      "website": "http://www.philthyphillys.com/"
    },
    {
      "name": "RUDY",
      "place_id": "ChIJ_8aP5SAd1YkR1m8LiDdINqg",
      "address": "4071 Thickson Rd Unit #3, Whitby",
      "lat": 43.92364449999999,
      "lon": -78.9281706,
      "rating": 4.5,
      "user_ratings_total": 257,
      "city": "Oshawa",
      "website": "https://www.rudyresto.com/"
    },
    {
      "name": "Liberty St Diner",
      "place_id": "ChIJj84IayAB1YkR30e7i1-3AJo",
      "address": "170 Liberty St S, Bowmanville",
      "lat": 43.8994201,
      "lon": -78.6759944,
      "rating": 4.8,
      "user_ratings_total": 324,
      "city": "Oshawa",
      "website": "http://libertystdiner.com/"
    },
    {
      "name": "Manhattin Kitchen & Eatery",
      "place_id": "ChIJqfDKf6MZ1YkR24I8kcDNPUA",
      "address": "200 Carnwith Dr E Unit 9, Whitby",
      "lat": 43.9687395,
      "lon": -78.9493121,
      "rating": 4.7,
      "user_ratings_total": 185,
      "city": "Oshawa",
      "website": "https://www.manhattineatery.ca/"
    },
    {
      "name": "Wings N' Things",
      "place_id": "ChIJ__9zIyMd1YkRSCzchMdmPmU",
      "address": "532 Simcoe St S, Oshawa",
      "lat": 43.8836293,
      "lon": -78.8575286,
      "rating": 3.4,
      "user_ratings_total": 36,
      "city": "Oshawa",
      "website": null
    },
    {
      "name": "Mountain Burgers Canada",
      "place_id": "ChIJ4b9aAC4d1YkRgDHN7gpizkY",
      "address": "97 King St E #3, Oshawa",
      "lat": 43.8980304,
      "lon": -78.8599607,
      "rating": 4.2,
      "user_ratings_total": 56,
      "city": "Oshawa",
      "website": "https://mountainburgerscanada.ca/"
    },
    {
      "name": "SK Burgers & Fusion",
      "place_id": "ChIJjaSFCL8d1YkRmYR9jtBNj3w",
      "address": "1076 Cedar St Unit 5, Oshawa",
      "lat": 43.8693792,
      "lon": -78.8514569,
      "rating": 4.9,
      "user_ratings_total": 285,
      "city": "Oshawa",
      "website": "https://www.facebook.com/profile.php?id=61563445756819"
    },
    {
      "name": "Best Poutine Deals",
      "place_id": "ChIJ7WGyziMd1YkRmmdOudtW01c",
      "address": "433 Simcoe St S, Oshawa",
      "lat": 43.8865513,
      "lon": -78.857681,
      "rating": 5,
      "user_ratings_total": 1,
      "city": "Oshawa",
      "website": null
    },
    {
      "name": "Laymoon Restaurant & Cafe (Westney RD S.)",
      "place_id": "ChIJkxxR8GDf1IkRCtNqFsBes-0",
      "address": "325 Westney Rd S, Ajax",
      "lat": 43.8392577,
      "lon": -79.0342,
      "rating": 4.6,
      "user_ratings_total": 1551,
      "city": "Oshawa",
      "website": "https://www.laymoon.ca/"
    },
    {
      "name": "Billie Jax Grill & Bar",
      "place_id": "ChIJz2xO58Ud1YkRIc4wwKQHc3s",
      "address": "1608 Dundas St E, Whitby",
      "lat": 43.8870037,
      "lon": -78.9119711,
      "rating": 4.3,
      "user_ratings_total": 1086,
      "city": "Oshawa",
      "website": "http://www.billiejax.com/"
    },
    {
      "name": "Break N Wings - Ajax",
      "place_id": "ChIJUT40GS_f1IkRcC8pB4IjN6w",
      "address": "44 Church St S, Ajax",
      "lat": 43.8530582,
      "lon": -79.0551497,
      "rating": 4.7,
      "user_ratings_total": 282,
      "city": "Oshawa",
      "website": "http://breaknwings.ca/"
    },
    {
      "name": "Devils Savoury",
      "place_id": "ChIJxZcvzcID1YkR_t2ipIWOAeU",
      "address": "600 Grandview St S, Oshawa",
      "lat": 43.8905594,
      "lon": -78.8142046,
      "rating": 4.6,
      "user_ratings_total": 190,
      "city": "Oshawa",
      "website": "https://www.facebook.com/devilssavoury/"
    },
    {
      "name": "RealSmash Burgers",
      "place_id": "ChIJI-lqYFotO4gRDNY7aKgm6Uo",
      "address": "1965 Tecumseh Rd W, Windsor",
      "lat": 42.2935939,
      "lon": -83.0509723,
      "rating": 4.8,
      "user_ratings_total": 345,
      "city": "Windsor",
      "website": "https://www.realsmash.ca/"
    },
    {
      "name": "Eastwood's Grill and Lounge",
      "place_id": "ChIJ2Rgldz0tO4gRijY89iBmE10",
      "address": "63 Riverside Dr E, Windsor",
      "lat": 42.31970889999999,
      "lon": -83.03880610000002,
      "rating": 4.6,
      "user_ratings_total": 893,
      "city": "Windsor",
      "website": "http://eastwoods-grill-and-lounge.square.site/"
    },
    {
      "name": "The GOAT Tap & Eatery Walkerville",
      "place_id": "ChIJ9_Ax2OAtO4gRp8LwX4pTqMg",
      "address": "1801 Wyandotte St E, Windsor",
      "lat": 42.3222803,
      "lon": -83.01391939999999,
      "rating": 4.8,
      "user_ratings_total": 884,
      "city": "Windsor",
      "website": "https://www.thegoattapandeatery.com/"
    },
    {
      "name": "Philthy Philly's Windsor",
      "place_id": "ChIJB9pYCyUtO4gRSdHW8vPE4NQ",
      "address": "1500 Huron Church Rd Unit #8, Windsor",
      "lat": 42.2900824,
      "lon": -83.0579262,
      "rating": 4.4,
      "user_ratings_total": 361,
      "city": "Windsor",
      "website": "https://philthyphillys.com/"
    },
    {
      "name": "Philthy Philly's Tecumseh",
      "place_id": "ChIJMeXEk4nVOogRdQS8ywRnE-A",
      "address": "13454 Tecumseh Rd E, Tecumseh",
      "lat": 42.3124872,
      "lon": -82.8677009,
      "rating": 4.5,
      "user_ratings_total": 167,
      "city": "Windsor",
      "website": "http://philthyphillys.order-online.ai/"
    },
    {
      "name": "Jose's Bar & Grill Windsor",
      "place_id": "ChIJ54K4xWssO4gRgGv4oQoHo34",
      "address": "2731 Howard Ave, Windsor",
      "lat": 42.2835489,
      "lon": -83.0120295,
      "rating": 4.3,
      "user_ratings_total": 2674,
      "city": "Windsor",
      "website": "https://josesbarandgrill.gpr.globalpaymentsinc.ca/menu"
    },
    {
      "name": "Telway Hamburgers",
      "place_id": "ChIJq-qtGyQzO4gRm33M9Jhgp1c",
      "address": "6820 Michigan Ave, Detroit",
      "lat": 42.3313141,
      "lon": -83.127929,
      "rating": 4.5,
      "user_ratings_total": 3025,
      "city": "Windsor",
      "website": "http://thetelway.4-food.com/"
    },
    {
      "name": "Main Street Burger & Poutine",
      "place_id": "ChIJqRInTP8tO4gRlKJ06Vr3dy0",
      "address": "1311 Ottawa St, Windsor",
      "lat": 42.3099044,
      "lon": -83.0119318,
      "rating": 4.8,
      "user_ratings_total": 99,
      "city": "Windsor",
      "website": "https://www.facebook.com/mainstreetburger/"
    },
    {
      "name": "Frenchy's Poutinery",
      "place_id": "ChIJawt8Xh4tO4gRoi0krWe1jkc",
      "address": "2109 Ottawa St, Windsor",
      "lat": 42.3128333,
      "lon": -83.0029314,
      "rating": 4.7,
      "user_ratings_total": 1104,
      "city": "Windsor",
      "website": "https://www.facebook.com/p/Frenchys-Poutinery-100042409646033/"
    },
    {
      "name": "Factory House",
      "place_id": "ChIJn7BBhRArO4gRAKpCj7gwZyc",
      "address": "5240 Tecumseh Rd E, Windsor",
      "lat": 42.3090238,
      "lon": -82.9615219,
      "rating": 4.3,
      "user_ratings_total": 1325,
      "city": "Windsor",
      "website": "http://www.factoryhouse.ca/"
    },
    {
      "name": "Cramdon's Tap & Eatery",
      "place_id": "ChIJ9cwVxBksO4gRcAgq6gaYgFM",
      "address": "2950 Dougall Ave, Windsor",
      "lat": 42.275,
      "lon": -83.01361109999999,
      "rating": 4.2,
      "user_ratings_total": 1049,
      "city": "Windsor",
      "website": "https://cramdons.com/"
    },
    {
      "name": "The Hideout Bar & Grill",
      "place_id": "ChIJL-tM9bgxO4gReFay4SoKpmM",
      "address": "989 Front Rd, Windsor",
      "lat": 42.2382291,
      "lon": -83.1016827,
      "rating": 4.3,
      "user_ratings_total": 327,
      "city": "Windsor",
      "website": null
    },
    {
      "name": "The Loose Goose RestoPub & Lounge",
      "place_id": "ChIJHdONFB8tO4gROA15doYjTaw",
      "address": "126 Ouellette Ave, Windsor",
      "lat": 42.3192551,
      "lon": -83.03990399999999,
      "rating": 4.4,
      "user_ratings_total": 2792,
      "city": "Windsor",
      "website": "https://www.theloosegoose.ca/"
    },
    {
      "name": "The Barrel House",
      "place_id": "ChIJwTSBxIEtO4gR3Bw7tk43Rao",
      "address": "3199 Sandwich St., Windsor",
      "lat": 42.3020884,
      "lon": -83.07539369999999,
      "rating": 4.6,
      "user_ratings_total": 671,
      "city": "Windsor",
      "website": "https://www.facebook.com/barrelhousedraughtco/"
    },
    {
      "name": "AutoCity Hamburgers & Poutine",
      "place_id": "ChIJGf2FAR8tO4gRfaTIjgnjZIs",
      "address": "256 Ouellette Ave, Windsor",
      "lat": 42.3179268,
      "lon": -83.0391217,
      "rating": 4.3,
      "user_ratings_total": 649,
      "city": "Windsor",
      "website": "http://www.autocityhp.com/"
    },
    {
      "name": "The Rabbit Hole",
      "place_id": "ChIJh5OZVe3xBFMRNIU-EsajR7I",
      "address": "2404 Melrose Ave, Saskatoon",
      "lat": 52.0999905,
      "lon": -106.6653462,
      "rating": 4.5,
      "user_ratings_total": 238,
      "city": "Saskatoon",
      "website": "http://therabbitholeyxe.com/"
    },
    {
      "name": "Philthy Philly's- Saskatoon",
      "place_id": "ChIJm2-Y5d73BFMR6kNr4fQD-II",
      "address": "107 Confederation Dr #21, Saskatoon",
      "lat": 52.1303007,
      "lon": -106.7233502,
      "rating": 4.6,
      "user_ratings_total": 280,
      "city": "Saskatoon",
      "website": "https://philthyphillys.order-online.ai/#/?service=takeout&restoCode=PP030"
    },
    {
      "name": "Yard & Flagon",
      "place_id": "ChIJh19PcSvxBFMRsgZ17u0-VfE",
      "address": "718 Broadway Ave, Saskatoon",
      "lat": 52.118278,
      "lon": -106.6569998,
      "rating": 4.5,
      "user_ratings_total": 1339,
      "city": "Saskatoon",
      "website": "http://www.yardandflagon.ca/"
    },
    {
      "name": "Poutines and parathas",
      "place_id": "ChIJaTPTFU73BFMR5v_e6QoDdOU",
      "address": "3310 Fairlight Dr, Saskatoon",
      "lat": 52.12840019999999,
      "lon": -106.7227194,
      "rating": 5,
      "user_ratings_total": 113,
      "city": "Saskatoon",
      "website": "https://poutinesnparathas.com/"
    },
    {
      "name": "The Twisted Monkey Bar & Grill",
      "place_id": "ChIJVVVlG3D3BFMRyB3AP4bTNhI",
      "address": "3303 33rd St W, Saskatoon",
      "lat": 52.1435489,
      "lon": -106.72671,
      "rating": 4,
      "user_ratings_total": 546,
      "city": "Saskatoon",
      "website": "http://tmpizza.com/"
    },
    {
      "name": "Boardwalk Burgers - Saskatoon",
      "place_id": "ChIJgdp_daDxBFMRHe_p7ggY4fs",
      "address": "2403 Preston Ave S, Saskatoon",
      "lat": 52.0998816,
      "lon": -106.6223376,
      "rating": 4.4,
      "user_ratings_total": 372,
      "city": "Saskatoon",
      "website": "https://www.boardwalkburgers.ca/"
    },
    {
      "name": "Rock n Rodz Diner",
      "place_id": "ChIJ52Gvi-T3BFMRxRHy5CNDW5c",
      "address": "15 Worobetz Pl, Saskatoon",
      "lat": 52.13058239999999,
      "lon": -106.7264103,
      "rating": 4.1,
      "user_ratings_total": 455,
      "city": "Saskatoon",
      "website": "https://www.skipthedishes.com/rock-n-rodz-diner-worobetz"
    },
    {
      "name": "Hunger Cure Restro Bar",
      "place_id": "ChIJCwLn8a73BFMRVopzfltiDYY",
      "address": "Scotia Centre, 123 2 Ave S #10, Saskatoon",
      "lat": 52.1283604,
      "lon": -106.6644222,
      "rating": 4.5,
      "user_ratings_total": 411,
      "city": "Saskatoon",
      "website": "http://www.hungercure.ca/"
    },
    {
      "name": "Crunchy Basket",
      "place_id": "ChIJR-GyqAf3BFMRS5JmwyPRkgA",
      "address": "123 2 Ave S Unit #10, Saskatoon",
      "lat": 52.1283604,
      "lon": -106.6644222,
      "rating": 4.3,
      "user_ratings_total": 10,
      "city": "Saskatoon",
      "website": null
    },
    {
      "name": "The Rook & Raven Pub",
      "place_id": "ChIJk2hgHdf2BFMR7O9z2VrvcI8",
      "address": "154 2 Ave S, Saskatoon",
      "lat": 52.12772589999999,
      "lon": -106.6641178,
      "rating": 4.5,
      "user_ratings_total": 1166,
      "city": "Saskatoon",
      "website": "http://www.therookandravenpub.com/"
    },
    {
      "name": "O'Shea's Irish Pub",
      "place_id": "ChIJB31x-db2BFMRge_yNpg2Ybg",
      "address": "222 2 Ave S, Saskatoon",
      "lat": 52.1266177,
      "lon": -106.6646007,
      "rating": 4.2,
      "user_ratings_total": 1083,
      "city": "Saskatoon",
      "website": "http://www.osheasirishpub.ca/"
    },
    {
      "name": "The Canadian Brewhouse (Saskatoon Stonebridge)",
      "place_id": "ChIJ88cETgjxBFMRxW4-ib8olVk",
      "address": "3150 Preston Ave S, Saskatoon",
      "lat": 52.0859215,
      "lon": -106.6260746,
      "rating": 4.3,
      "user_ratings_total": 2440,
      "city": "Saskatoon",
      "website": "https://thecanadianbrewhouse.com/locations/saskatoon/#south"
    },
    {
      "name": "Shawarma Boys",
      "place_id": "ChIJX5P5sNX3BFMRsXPl6hMta5A",
      "address": "610 Idylwyld Dr N, Saskatoon",
      "lat": 52.1356396,
      "lon": -106.6694327,
      "rating": 3.6,
      "user_ratings_total": 27,
      "city": "Saskatoon",
      "website": "http://www.shawarmaboys.ca/"
    },
    {
      "name": "Hudsons Saskatoon",
      "place_id": "ChIJTXPxttb2BFMRZxNzm6UtyJ0",
      "address": "401 21st St E, Saskatoon",
      "lat": 52.1263771,
      "lon": -106.6609726,
      "rating": 4.1,
      "user_ratings_total": 2086,
      "city": "Saskatoon",
      "website": "https://hudsonscanadaspub.com/"
    },
    {
      "name": "Coach's Corner Eatery & Lounge",
      "place_id": "ChIJs2oAhBP3BFMRfV6kgUAj7JM",
      "address": "269 3 Ave S, Saskatoon",
      "lat": 52.1256854,
      "lon": -106.663699,
      "rating": 4.6,
      "user_ratings_total": 109,
      "city": "Saskatoon",
      "website": "https://coachscorneryxe.ca/"
    },
    {
      "name": "Leopold's Tavern Regina - North",
      "place_id": "ChIJCyPtJK4eHFMREMCcZ0b_tzU",
      "address": "5650 Rochdale Blvd, Regina",
      "lat": 50.49608809999999,
      "lon": -104.6616709,
      "rating": 4.6,
      "user_ratings_total": 1476,
      "city": "Regina",
      "website": "http://leopoldstavern.com/"
    },
    {
      "name": "Victoria's Tavern Downtown",
      "place_id": "ChIJXbXecEceHFMRB4uvwhn1kzI",
      "address": "1965 Hamilton St, Regina",
      "lat": 50.4476023,
      "lon": -104.6092301,
      "rating": 4.5,
      "user_ratings_total": 2031,
      "city": "Regina",
      "website": "http://victoriastavern.ca/"
    },
    {
      "name": "Knotted Thistle Pub",
      "place_id": "ChIJnwrqD7CgHlMRjsuNgDyR-UM",
      "address": "4177 Albert St, Regina",
      "lat": 50.41342220000001,
      "lon": -104.6171742,
      "rating": 4.4,
      "user_ratings_total": 639,
      "city": "Regina",
      "website": "http://knottedthistle.ca/"
    },
    {
      "name": "YQR BURGERS",
      "place_id": "ChIJ-5IrCKQfHFMRvYYnKBXAGSc",
      "address": "2125 11th Ave, Regina",
      "lat": 50.4501512,
      "lon": -104.6118764,
      "rating": 3.8,
      "user_ratings_total": 44,
      "city": "Regina",
      "website": "https://www.skipthedishes.com/yqr-11th-avenue"
    },
    {
      "name": "Creekside Pub & Brewery",
      "place_id": "ChIJi8kz0fYfHFMR4UVtOm_zJBQ",
      "address": "3215 Eastgate Dr, Regina",
      "lat": 50.4482399,
      "lon": -104.5361567,
      "rating": 4.4,
      "user_ratings_total": 876,
      "city": "Regina",
      "website": "https://creeksidepub.com/"
    },
    {
      "name": "Birmingham's Vodka and Ale House Regina Star Lite",
      "place_id": "ChIJ4bXHlRKgHlMRwmL0BP6P7BE",
      "address": "2635 Star Lite St, Regina",
      "lat": 50.4460826,
      "lon": -104.5445027,
      "rating": 4.4,
      "user_ratings_total": 1500,
      "city": "Regina",
      "website": "http://birminghams.ca/"
    },
    {
      "name": "Dad's Diner",
      "place_id": "ChIJWY56ywsfHFMRHY9OnfMsBb0",
      "address": "1419 11th Ave, Regina",
      "lat": 50.4502762,
      "lon": -104.6012175,
      "rating": 4.9,
      "user_ratings_total": 136,
      "city": "Regina",
      "website": "http://www.reginafoodtruckandcatering.ca/"
    },
    {
      "name": "Union Station Restaurant + Bar",
      "place_id": "ChIJWTP0GE8fHFMRer5UVBuTuws",
      "address": "1880 Saskatchewan Dr, Regina",
      "lat": 50.4531115,
      "lon": -104.6080971,
      "rating": 3.9,
      "user_ratings_total": 165,
      "city": "Regina",
      "website": "https://casinoregina.com/dining/casino-regina/union-station"
    },
    {
      "name": "Prairie Donair Quance St. Regina",
      "place_id": "ChIJ4QYDY-UfHFMR50rMaDV-6Mo",
      "address": "2518 E Quance St, Regina",
      "lat": 50.4440844,
      "lon": -104.5478014,
      "rating": 4.2,
      "user_ratings_total": 399,
      "city": "Regina",
      "website": null
    },
    {
      "name": "The Canadian Brewhouse (Regina Eastgate)",
      "place_id": "ChIJG-dFGPYfHFMRMwk5V7v6F3w",
      "address": "2005 Prince of Wales Dr, Regina",
      "lat": 50.446907,
      "lon": -104.531204,
      "rating": 4.3,
      "user_ratings_total": 1825,
      "city": "Regina",
      "website": "https://thecanadianbrewhouse.com/locations/regina/#eastgate"
    },
    {
      "name": "O'Hanlon's Irish Pub",
      "place_id": "ChIJM3wVFEceHFMRShlj_pj8Og4",
      "address": "1947 Scarth St, Regina",
      "lat": 50.4479025,
      "lon": -104.6106829,
      "rating": 4.3,
      "user_ratings_total": 1026,
      "city": "Regina",
      "website": "https://www.ohanlons.ca/"
    },
    {
      "name": "Movado Restaurant & Bar",
      "place_id": "ChIJT9OhSf0fHFMRtJwiip6wtWA",
      "address": "1800 Prince of Wales Dr, Regina",
      "lat": 50.4490057,
      "lon": -104.5341559,
      "rating": 4.1,
      "user_ratings_total": 84,
      "city": "Regina",
      "website": "https://order.toasttab.com/online/movado-sports-bar-1800-prince-of-wales-drive"
    },
    {
      "name": "Rock Creek Tap and Grill",
      "place_id": "ChIJN4lsDqwfHFMRj9-6vNbnu4w",
      "address": "3255 Quance St, Regina",
      "lat": 50.4436579,
      "lon": -104.5376134,
      "rating": 4.1,
      "user_ratings_total": 174,
      "city": "Regina",
      "website": "http://www.rockcreekgrill.com/"
    },
    {
      "name": "Leicester Family Restaurant & Lounge Regina",
      "place_id": "ChIJM_kESgIfHFMRJnJGaG8S3ig",
      "address": "474 McCarthy Blvd, Regina",
      "lat": 50.4838263,
      "lon": -104.6655041,
      "rating": 4,
      "user_ratings_total": 131,
      "city": "Regina",
      "website": "https://www.leicesterregina.com/"
    },
    {
      "name": "The Canadian Brewhouse (Regina Grasslands)",
      "place_id": "ChIJozj6iUOnHlMR1qpK9ARen3k",
      "address": "4820 Gordon Rd, Regina",
      "lat": 50.4073918,
      "lon": -104.6499509,
      "rating": 4.4,
      "user_ratings_total": 2320,
      "city": "Regina",
      "website": "https://thecanadianbrewhouse.com/locations/regina/#grasslands"
    },
    {
      "name": "The Blind Pig Niagara",
      "place_id": "ChIJM0TiIGND04kRSTOHUwCB7ik",
      "address": "6689 Lundy's Ln, Niagara Falls",
      "lat": 43.08968,
      "lon": -79.1067061,
      "rating": 4.5,
      "user_ratings_total": 1250,
      "city": "St. Catharines-Niagara",
      "website": "http://blindpigniagara.com/"
    },
    {
      "name": "Habibis on the Grill ( St. Catharines)",
      "place_id": "ChIJsfgEMLBR04kRgpeSjCQNbqA",
      "address": "201 St Paul St, St. Catharines",
      "lat": 43.15817,
      "lon": -79.24413,
      "rating": 5,
      "user_ratings_total": 22,
      "city": "St. Catharines-Niagara",
      "website": "https://instagram.com/habibis.on.the.grill"
    },
    {
      "name": "Sandtrap Pub & Grill",
      "place_id": "ChIJvzbpAUJf04kRwZXKZjeQ94U",
      "address": "358 Mary St, Niagara-on-the-Lake",
      "lat": 43.2544499,
      "lon": -79.0874779,
      "rating": 4.5,
      "user_ratings_total": 1384,
      "city": "St. Catharines-Niagara",
      "website": "http://sandtrappub.com/"
    },
    {
      "name": "Cool Hand Luke's Bar & Grill",
      "place_id": "ChIJ-5BN23dD04kROZANMvAsTGk",
      "address": "6175 Dunn St Unit 7, Niagara Falls",
      "lat": 43.079135,
      "lon": -79.0966361,
      "rating": 4.1,
      "user_ratings_total": 207,
      "city": "St. Catharines-Niagara",
      "website": "https://www.coolhandlukes.net/our-story"
    },
    {
      "name": "Chip n Charlie's Eatery & Bar",
      "place_id": "ChIJf-oHAPNE04kRRpoTujlhBpw",
      "address": "8189 Lundy's Ln, Niagara Falls",
      "lat": 43.0892357,
      "lon": -79.13486250000001,
      "rating": 4.3,
      "user_ratings_total": 1285,
      "city": "St. Catharines-Niagara",
      "website": "https://www.chipncharlies.com/"
    },
    {
      "name": "Yank's Old Niagara Bar & Grill",
      "place_id": "ChIJvwxabxdD04kR_oMF9AD3Myc",
      "address": "5008 Centre St, Niagara Falls",
      "lat": 43.0920905,
      "lon": -79.0765447,
      "rating": 4.2,
      "user_ratings_total": 855,
      "city": "St. Catharines-Niagara",
      "website": "https://www.yanksniagara.com/"
    },
    {
      "name": "The Grist - Craft Kitchen & Brewery",
      "place_id": "ChIJr7AxEoRc04kRubrXTfxeZXE",
      "address": "78 Four Mile Creek Rd, Niagara-on-the-Lake",
      "lat": 43.1502285,
      "lon": -79.1039473,
      "rating": 4.6,
      "user_ratings_total": 1007,
      "city": "St. Catharines-Niagara",
      "website": "http://www.thegrist.ca/"
    },
    {
      "name": "Church's Texas Chicken",
      "place_id": "ChIJIwmfmm9D04kRpE2OdJeMmPQ",
      "address": "5846 Drummond Rd, Niagara Falls",
      "lat": 43.0897347,
      "lon": -79.0973648,
      "rating": 4.6,
      "user_ratings_total": 2246,
      "city": "St. Catharines-Niagara",
      "website": "https://ontario.churchstexaschicken.com/"
    },
    {
      "name": "U Need A Pita",
      "place_id": "ChIJL63GKk1Q04kRKTSm4T3NM8A",
      "address": "116 St Paul St, St. Catharines",
      "lat": 43.1570988,
      "lon": -79.24498439999999,
      "rating": 3.8,
      "user_ratings_total": 352,
      "city": "St. Catharines-Niagara",
      "website": "http://www.uneedapita.com/"
    },
    {
      "name": "HAMBRGR St. Catharines",
      "place_id": "ChIJTcHsaU1Q04kRNe8l_yrhK4s",
      "address": "233 St Paul St, St. Catharines",
      "lat": 43.1584936,
      "lon": -79.24368609999999,
      "rating": 4.6,
      "user_ratings_total": 1873,
      "city": "St. Catharines-Niagara",
      "website": "http://hambrgr.com/"
    },
    {
      "name": "Jo Blo's Bar & Grill",
      "place_id": "ChIJi36PSsRR04kRDQiWdMRoThI",
      "address": "231 St Paul St W, St. Catharines",
      "lat": 43.1450244,
      "lon": -79.2593481,
      "rating": 4.4,
      "user_ratings_total": 461,
      "city": "St. Catharines-Niagara",
      "website": null
    },
    {
      "name": "Kim's Wooden Nicol",
      "place_id": "ChIJz0iLjCJR04kRqA6TO2cDCCw",
      "address": "Unit 1, 224 Lakeport Rd, St. Catharines",
      "lat": 43.1899593,
      "lon": -79.2542663,
      "rating": 4.1,
      "user_ratings_total": 323,
      "city": "St. Catharines-Niagara",
      "website": "http://www.kimswoodennicol.com/"
    },
    {
      "name": "Potato Jackets",
      "place_id": "ChIJeVVLBxND04kR_YkDm6X5uRs",
      "address": "5444 Ferry St, Niagara Falls",
      "lat": 43.0894506,
      "lon": -79.08436689999999,
      "rating": 3.8,
      "user_ratings_total": 988,
      "city": "St. Catharines-Niagara",
      "website": "http://www.potatojacketsniagara.com/"
    },
    {
      "name": "The Jukebox Diner",
      "place_id": "ChIJO8DlFF9D04kRIL3T2HB94p4",
      "address": "5181 Drummond Rd, Niagara Falls",
      "lat": 43.0991753,
      "lon": -79.0986379,
      "rating": 4.7,
      "user_ratings_total": 285,
      "city": "St. Catharines-Niagara",
      "website": "https://www.facebook.com/jukeboxdinerniagara"
    },
    {
      "name": "MJ's Own Munchies",
      "place_id": "ChIJaxvcyF5X04kROUbvq3HaxnU",
      "address": "406 Lakeshore Rd, St. Catharines",
      "lat": 43.2180686,
      "lon": -79.2039073,
      "rating": 4.5,
      "user_ratings_total": 1373,
      "city": "St. Catharines-Niagara",
      "website": "https://www.mjsownmunchies.net/"
    },
    {
      "name": "Osmow's Shawarma",
      "place_id": "ChIJg75g_ECjDEsRNQ4k2Z3ce_E",
      "address": "55 Kelsey Dr Unit-D, St. John's",
      "lat": 47.5530721,
      "lon": -52.7813063,
      "rating": 4.5,
      "user_ratings_total": 328,
      "city": "St. John's",
      "website": "http://osmows.com/"
    },
    {
      "name": "The Celtic Hearth",
      "place_id": "ChIJKz2g3bujDEsRjIRik-VNaMg",
      "address": "300 Water St, St. John's",
      "lat": 47.5619801,
      "lon": -52.7100017,
      "rating": 4.1,
      "user_ratings_total": 1313,
      "city": "St. John's",
      "website": "https://www.facebook.com/TheCelticHearth/"
    },
    {
      "name": "No Name Pizza",
      "place_id": "ChIJ7373LwujDEsRYBPIlc1nhQ8",
      "address": "30 Ropewalk Ln, St. John's",
      "lat": 47.5565752,
      "lon": -52.7344878,
      "rating": 3.9,
      "user_ratings_total": 530,
      "city": "St. John's",
      "website": "http://www.nonamepizza.ca/"
    },
    {
      "name": "Bridie Molloy's",
      "place_id": "ChIJ2TciGrujDEsRnXIkk4bQoKw",
      "address": "5 George St, St. John's",
      "lat": 47.5621124,
      "lon": -52.7100886,
      "rating": 4.3,
      "user_ratings_total": 348,
      "city": "St. John's",
      "website": "http://www.bridiemolloys.ca/"
    },
    {
      "name": "Mary Brown's Chicken & Taters",
      "place_id": "ChIJr6ft0eSjDEsREpYV-dHGZUY",
      "address": "61 Torbay Rd, St. John's",
      "lat": 47.585913,
      "lon": -52.7084381,
      "rating": 4.1,
      "user_ratings_total": 614,
      "city": "St. John's",
      "website": "https://marybrowns.com/locations/"
    },
    {
      "name": "Jungle Jim's Eatery",
      "place_id": "ChIJp2NVLbujDEsRpNRa5MUUnq0",
      "address": "2 Holdsworth St, St. John's",
      "lat": 47.5609523,
      "lon": -52.71126539999999,
      "rating": 4,
      "user_ratings_total": 566,
      "city": "St. John's",
      "website": "http://www.junglejims.ca/"
    },
    {
      "name": "Mary Brown's Chicken & Taters",
      "place_id": "ChIJ-2Qu-HejDEsRasef5XTU_Mk",
      "address": "336 Freshwater Rd, St. John's",
      "lat": 47.5618017,
      "lon": -52.74579439999999,
      "rating": 4,
      "user_ratings_total": 520,
      "city": "St. John's",
      "website": "https://marybrowns.com/locations/"
    },
    {
      "name": "Mary Brown's Chicken & Taters",
      "place_id": "ChIJne1CkEe7DEsRUfrfHTM3fqg",
      "address": "4 Elizabeth Dr, Paradise",
      "lat": 47.5346195,
      "lon": -52.8420426,
      "rating": 4.1,
      "user_ratings_total": 325,
      "city": "St. John's",
      "website": "https://marybrowns.com/locations/"
    },
    {
      "name": "Denny's Restaurant",
      "place_id": "ChIJM_wO32CjDEsRbt3grwOCoGY",
      "address": "227 Kenmount Rd, St. John's",
      "lat": 47.5520542,
      "lon": -52.7733881,
      "rating": 4.3,
      "user_ratings_total": 2546,
      "city": "St. John's",
      "website": "https://www.dennys.ca/restaurant/newfoundland-labrador/st-johns/?utm_source=google&utm_medium=maps"
    },
    {
      "name": "Boston Pizza",
      "place_id": "ChIJa8_d6l-jDEsRRb0KO6l4_2M",
      "address": "35 Kelsey Dr F3, St. John's",
      "lat": 47.5516256,
      "lon": -52.78081239999999,
      "rating": 4.2,
      "user_ratings_total": 965,
      "city": "St. John's",
      "website": "https://bostonpizza.com/en/locations/kelsey-drive.html"
    },
    {
      "name": "Oscar\u2019s Eatery & Cafe",
      "place_id": "ChIJ-Sn46XO9DEsRADtiB26HWAs",
      "address": "125 Park Ave, Mount Pearl",
      "lat": 47.5190641,
      "lon": -52.7896447,
      "rating": 4.9,
      "user_ratings_total": 141,
      "city": "St. John's",
      "website": "https://oscars-eatery.com/"
    },
    {
      "name": "P\u00fcr & Simple",
      "place_id": "ChIJSfGRXUi7DEsRT-mO56bAayc",
      "address": "1641 Topsail Rd, Paradise",
      "lat": 47.5271868,
      "lon": -52.8745684,
      "rating": 4.6,
      "user_ratings_total": 610,
      "city": "St. John's",
      "website": "https://pursimple.com/paradise/"
    },
    {
      "name": "Lorina's Restaurant",
      "place_id": "ChIJ8ePzEpanDEsRbomn_0_Ub7c",
      "address": "1496 Torbay Rd, Torbay",
      "lat": 47.665825,
      "lon": -52.7345176,
      "rating": 4.9,
      "user_ratings_total": 93,
      "city": "St. John's",
      "website": "https://www.facebook.com/profile.php?id=61553350753422&mibextid=LQQJ4d"
    },
    {
      "name": "Mogador Restaurant",
      "place_id": "ChIJby396KW9DEsRZPGC9_J8meE",
      "address": "673 Topsail Rd, St. John's",
      "lat": 47.523636,
      "lon": -52.7716131,
      "rating": 4.9,
      "user_ratings_total": 150,
      "city": "St. John's",
      "website": null
    },
    {
      "name": "Terre Restaurant",
      "place_id": "ChIJub501_ejDEsRah4igSB3mUo",
      "address": "125 Water St, St. John's",
      "lat": 47.5660896,
      "lon": -52.70438,
      "rating": 4.7,
      "user_ratings_total": 944,
      "city": "St. John's",
      "website": "https://www.germainhotels.com/fr/hotel-alt/st-johns/quoi-faire/terre-restaurant-et-cafe"
    },
    {
      "name": "Leopold's Tavern Kelowna - Bernard",
      "place_id": "ChIJRfCzzGP1fVMRVkywY_925h4",
      "address": "279 Bernard Ave, Kelowna",
      "lat": 49.8861796,
      "lon": -119.4973267,
      "rating": 4.4,
      "user_ratings_total": 1277,
      "city": "Kelowna",
      "website": "https://leopoldstavern.com/"
    },
    {
      "name": "CRAFT Beer Market Kelowna",
      "place_id": "ChIJ32-wGMX1fVMRIdn_qhvp0Ww",
      "address": "257 Bernard Ave, Kelowna",
      "lat": 49.8861757,
      "lon": -119.4980894,
      "rating": 4.3,
      "user_ratings_total": 2402,
      "city": "Kelowna",
      "website": "https://www.craftbeermarket.com/locations/kelowna/?utm_source=google&utm_medium=organic&utm_campaign=gmb"
    },
    {
      "name": "Primetime Donair & Poutine",
      "place_id": "ChIJjfdZsxX1fVMRjQpFhyldAXo",
      "address": "1360 Ellis St #103, Kelowna",
      "lat": 49.8900685,
      "lon": -119.4937153,
      "rating": 4.3,
      "user_ratings_total": 164,
      "city": "Kelowna",
      "website": "https://primetimedonair.com/"
    },
    {
      "name": "Central Kitchen + Bar",
      "place_id": "ChIJW0kSI1_zfVMRAOpSn4H2Hvc",
      "address": "1155 Ellis St, Kelowna",
      "lat": 49.8945575,
      "lon": -119.4932513,
      "rating": 4.6,
      "user_ratings_total": 2066,
      "city": "Kelowna",
      "website": "http://www.centralkelowna.com/?UTM_source=GMB_listing&UTM_medium=organic"
    },
    {
      "name": "PrimeTime Donair & Poutine",
      "place_id": "ChIJNYdq-qV1glQRZKMZaniGoSE",
      "address": "3041 Louie Dr #505, Westbank",
      "lat": 49.8346258,
      "lon": -119.6185861,
      "rating": 4.2,
      "user_ratings_total": 188,
      "city": "Kelowna",
      "website": "https://primetimedonair.com/"
    },
    {
      "name": "Train Station Pub",
      "place_id": "ChIJ7cVNO1_zfVMRu79nNUOlFNc",
      "address": "1177 Ellis St, Kelowna",
      "lat": 49.8939424,
      "lon": -119.4927911,
      "rating": 4.4,
      "user_ratings_total": 2391,
      "city": "Kelowna",
      "website": "https://thetrainstationpub.com/"
    },
    {
      "name": "Original Joe's",
      "place_id": "ChIJBdf1EE11glQRht-sGfrq0FU",
      "address": "3000 Louie Dr Unit 114, West Kelowna",
      "lat": 49.8366707,
      "lon": -119.6177877,
      "rating": 4.1,
      "user_ratings_total": 943,
      "city": "Kelowna",
      "website": "https://www.originaljoes.ca/en/locations/bc/west-kelowna/3000-louie-drive"
    },
    {
      "name": "PNB - Pretty Not Bad",
      "place_id": "ChIJgXJJhl3zfVMRw9h4vrr9W50",
      "address": "740 Clement Ave #1, Kelowna",
      "lat": 49.8938238,
      "lon": -119.4875944,
      "rating": 4.4,
      "user_ratings_total": 613,
      "city": "Kelowna",
      "website": "http://prettynotbadylw.com/"
    },
    {
      "name": "The Evergreen Pizzeria",
      "place_id": "ChIJry5BL7l1glQRdrYAPIrqG_Y",
      "address": "2528 Main St #13A, West Kelowna",
      "lat": 49.8298924,
      "lon": -119.6323012,
      "rating": 4.6,
      "user_ratings_total": 339,
      "city": "Kelowna",
      "website": "https://theevergreenpizzeria.com/?"
    },
    {
      "name": "Sammy J's Grill and Bar West Kelowna",
      "place_id": "ChIJA7qMlMT0fVMRt2GOjDSscIE",
      "address": "190-525 BC-97, West Kelowna",
      "lat": 49.88005099999999,
      "lon": -119.5351604,
      "rating": 4.2,
      "user_ratings_total": 977,
      "city": "Kelowna",
      "website": "http://www.sammyjs.ca/"
    },
    {
      "name": "Freddy's Brewpub",
      "place_id": "ChIJ1QEMNUqNfVMRHLcobtzCIFU",
      "address": "948 McCurdy Rd #124, Kelowna",
      "lat": 49.9021664,
      "lon": -119.4052717,
      "rating": 4,
      "user_ratings_total": 367,
      "city": "Kelowna",
      "website": "http://www.freddysbrewpub.com/"
    },
    {
      "name": "Original Joe's",
      "place_id": "ChIJad2UZ0-LfVMRR1JlrnWd5y8",
      "address": "2728 Pandosy St, Kelowna",
      "lat": 49.8652329,
      "lon": -119.4916752,
      "rating": 4.1,
      "user_ratings_total": 970,
      "city": "Kelowna",
      "website": "https://www.originaljoes.ca/en/locations/bc/kelowna/2728-pandosy-street"
    },
    {
      "name": "Buffalo Rouge Brewing Co.",
      "place_id": "ChIJx-qLJdnzfVMR4iHvoKqnBpk",
      "address": "1111 Gordon Dr #105, Kelowna",
      "lat": 49.8954287,
      "lon": -119.4761477,
      "rating": 4.9,
      "user_ratings_total": 244,
      "city": "Kelowna",
      "website": "https://www.buffalorougebrewing.com/"
    },
    {
      "name": "Turtle Jack's West Kelowna",
      "place_id": "ChIJEWkfWcd1glQRHBGPzkMpazk",
      "address": "2569 Dobbin Rd, West Kelowna",
      "lat": 49.82768799999999,
      "lon": -119.636008,
      "rating": 4.5,
      "user_ratings_total": 406,
      "city": "Kelowna",
      "website": "https://turtlejacks.com/locations/turtle-jacks-kelowna/?utm_source=G&utm_medium=LPM&utm_campaign=MTY"
    },
    {
      "name": "Kettle Valley Public On Main Bar & Grill",
      "place_id": "ChIJi9jDVxCKfVMRuKiDisH9rgo",
      "address": "5305 Main St #100, Kelowna",
      "lat": 49.79440229999999,
      "lon": -119.5124993,
      "rating": 4.5,
      "user_ratings_total": 280,
      "city": "Kelowna",
      "website": "https://www.kettlevalleypub.com/"
    },
    {
      "name": "The Boss Kitchen & Bar",
      "place_id": "ChIJXazjWADLcFMR4GjVxb6W4Xs",
      "address": "229 Banff Ave, Banff",
      "lat": 51.1783371,
      "lon": -115.5710694,
      "rating": 4.7,
      "user_ratings_total": 858,
      "city": "Banff",
      "website": "http://thebossbanff.com/"
    },
    {
      "name": "Banff Poutine",
      "place_id": "ChIJRZXgtHjLcFMR70GmPrp5YVs",
      "address": "223 Bear St, Banff",
      "lat": 51.1780096,
      "lon": -115.5725281,
      "rating": 4.4,
      "user_ratings_total": 643,
      "city": "Banff",
      "website": "http://www.banff-poutine.com/"
    },
    {
      "name": "The Grizzly Paw Pub",
      "place_id": "ChIJE7xB2OrFcFMRzf4vylmxkeE",
      "address": "622 8 St, Canmore",
      "lat": 51.0894679,
      "lon": -115.357265,
      "rating": 4.3,
      "user_ratings_total": 4786,
      "city": "Banff",
      "website": "http://www.thegrizzlypaw.com/"
    },
    {
      "name": "The Eddie Burger + Bar",
      "place_id": "ChIJJ8_i30XKcFMR0slmsKHg48w",
      "address": "137 Banff Ave #6, Banff",
      "lat": 51.176531,
      "lon": -115.571523,
      "rating": 4.5,
      "user_ratings_total": 3114,
      "city": "Banff",
      "website": "https://www.eddieburgerbar.ca/"
    },
    {
      "name": "Mad Trapper's",
      "place_id": "ChIJY-n6IpWxcFMRvqOIucl4WIM",
      "address": "1 Sunshine Access Rd, Banff",
      "lat": 51.0785206,
      "lon": -115.7824824,
      "rating": 4,
      "user_ratings_total": 282,
      "city": "Banff",
      "website": "https://www.skibanff.com/trappers"
    },
    {
      "name": "The Drake Screaming Retriever Restaurant & Brewery",
      "place_id": "ChIJ19RrJ5XFcFMRP1q72iGn3Tk",
      "address": "909 Railway Ave, Canmore",
      "lat": 51.0897579,
      "lon": -115.354781,
      "rating": 4,
      "user_ratings_total": 1275,
      "city": "Banff",
      "website": "https://drakecanmore.ca/"
    },
    {
      "name": "Tavern 1883",
      "place_id": "ChIJ18-98uvFcFMRVRlm4GDg2HM",
      "address": "709 9 St, Canmore",
      "lat": 51.09027099999999,
      "lon": -115.3590927,
      "rating": 4.5,
      "user_ratings_total": 2463,
      "city": "Banff",
      "website": "http://www.tavern1883.com/"
    },
    {
      "name": "Rose & Crown Restaurant & Pub",
      "place_id": "ChIJPxOiIZXFcFMRrnLcq_7yLo8",
      "address": "749 Railway Ave, Canmore",
      "lat": 51.0893767,
      "lon": -115.3540004,
      "rating": 4.1,
      "user_ratings_total": 1823,
      "city": "Banff",
      "website": "http://www.therosecanmore.com/"
    },
    {
      "name": "The Local - Eatery & Bar",
      "place_id": "ChIJuej-Vs3FcFMRat5V1WpKkWY",
      "address": "718 8 St, Canmore",
      "lat": 51.0894466,
      "lon": -115.3595773,
      "rating": 4.5,
      "user_ratings_total": 400,
      "city": "Banff",
      "website": "http://www.thelocalcanmore.com/"
    },
    {
      "name": "Elk & Oarsman Restaurant & Bar",
      "place_id": "ChIJFZ4ab0bKcFMRFr7gJexaXug",
      "address": "119 Banff Ave, Banff",
      "lat": 51.1754901,
      "lon": -115.5714862,
      "rating": 4.3,
      "user_ratings_total": 1810,
      "city": "Banff",
      "website": "https://elkandoarsman.com/"
    },
    {
      "name": "Banff Ave Brewing Co.",
      "place_id": "ChIJ12I6aEbKcFMRKDwZS1JO2wA",
      "address": "110 Banff Ave, Banff",
      "lat": 51.1748972,
      "lon": -115.5706611,
      "rating": 4.2,
      "user_ratings_total": 1272,
      "city": "Banff",
      "website": "http://banffavebrewingco.ca/"
    },
    {
      "name": "St James's Gate Irish Pub",
      "place_id": "ChIJ-7hRl0XKcFMR7v2Ykylqh3Q",
      "address": "207 Wolf St, Banff",
      "lat": 51.1783472,
      "lon": -115.5716942,
      "rating": 4.4,
      "user_ratings_total": 2381,
      "city": "Banff",
      "website": "https://stjamesgatebanff.com/"
    },
    {
      "name": "The Canadian Brewhouse (Banff)",
      "place_id": "ChIJJwcsF2rLcFMRXNh3ZL-leVw",
      "address": "317 Banff Ave, Banff",
      "lat": 51.1787053,
      "lon": -115.5711892,
      "rating": 4.5,
      "user_ratings_total": 1319,
      "city": "Banff",
      "website": "https://thecanadianbrewhouse.com/locations/banff/"
    },
    {
      "name": "Banff Sizzlers",
      "place_id": "ChIJOXSxEgDLcFMRtqpQTQv6u2k",
      "address": "124 Banff Ave unit 103, Banff",
      "lat": 51.1756836,
      "lon": -115.5706862,
      "rating": 3.9,
      "user_ratings_total": 55,
      "city": "Banff",
      "website": "https://banffsizzlers.com/"
    },
    {
      "name": "iyycburg (Canmore)",
      "place_id": "ChIJ_d_bmkLFcFMRp2wM2D3AqmA",
      "address": "837 8 St #102, Canmore",
      "lat": 51.08911519999999,
      "lon": -115.3630915,
      "rating": 4.7,
      "user_ratings_total": 178,
      "city": "Banff",
      "website": "https://www.iyycburg.com/"
    },
    {
      "name": "Fatburger Yellowknife",
      "place_id": "ChIJzwXPOjPx0VMR0WiDcGS46Kg",
      "address": "100 Borden Dr Unit #1, Yellowknife",
      "lat": 62.4499934,
      "lon": -114.406312,
      "rating": 4.1,
      "user_ratings_total": 603,
      "city": "Yellowknife",
      "website": "https://www.fatburgercanada.com/locations/fatburger-yellowknife/"
    },
    {
      "name": "The Monkey Tree Pub",
      "place_id": "ChIJjXHU9i3x0VMRwsX37alt9qY",
      "address": "483 Range Lake Rd, Yellowknife",
      "lat": 62.4457995,
      "lon": -114.4098881,
      "rating": 4.1,
      "user_ratings_total": 431,
      "city": "Yellowknife",
      "website": null
    },
    {
      "name": "Bruno Pizza",
      "place_id": "ChIJVfLICdv20VMRHzxWWA_CHcs",
      "address": "5124 53 St, Yellowknife",
      "lat": 62.44973090000001,
      "lon": -114.3702981,
      "rating": 3.7,
      "user_ratings_total": 208,
      "city": "Yellowknife",
      "website": "http://www.brunospizzayellowknife.ca/"
    },
    {
      "name": "Mary Brown's Chicken",
      "place_id": "ChIJLSDIrTXx0VMRP1WciyRkC9A",
      "address": "350 Borden Dr, Yellowknife",
      "lat": 62.4545305,
      "lon": -114.4099992,
      "rating": 4.2,
      "user_ratings_total": 278,
      "city": "Yellowknife",
      "website": "https://marybrowns.com/locations/"
    },
    {
      "name": "The Black Knight Pub",
      "place_id": "ChIJofMvh8T20VMRqhVySQ_PQU4",
      "address": "4910 49 St, Yellowknife",
      "lat": 62.45525900000001,
      "lon": -114.3726684,
      "rating": 4.3,
      "user_ratings_total": 662,
      "city": "Yellowknife",
      "website": "http://www.blackknightpub.com/"
    },
    {
      "name": "NWT Brewing Company / The Woodyard Brewhouse & Eatery",
      "place_id": "ChIJUeblU-n20VMRrdPlhzL1H9U",
      "address": "3905 Franklin Ave, Yellowknife",
      "lat": 62.4616282,
      "lon": -114.3534872,
      "rating": 4.6,
      "user_ratings_total": 642,
      "city": "Yellowknife",
      "website": "http://www.nwtbrewingco.com/"
    },
    {
      "name": "Copperhouse Eatery + Lounge",
      "place_id": "ChIJRVu-Xe3x0VMRVWLJYKLpzjc",
      "address": "484 Range Lake Rd, Yellowknife",
      "lat": 62.4455782,
      "lon": -114.411855,
      "rating": 4.2,
      "user_ratings_total": 436,
      "city": "Yellowknife",
      "website": "https://www.copperhouse.ca/"
    },
    {
      "name": "Boston Pizza",
      "place_id": "ChIJ4wdVNMP20VMRyljQi4xJVio",
      "address": "5102 48 St, Yellowknife",
      "lat": 62.45359879999999,
      "lon": -114.3665193,
      "rating": 3.6,
      "user_ratings_total": 881,
      "city": "Yellowknife",
      "website": "https://bostonpizza.com/en/locations/yellowknife.html"
    },
    {
      "name": "Yk Wood Fired Pizzeria",
      "place_id": "ChIJVfS521P30VMReuUvVc8bcTc",
      "address": "5121 49 St, Yellowknife",
      "lat": 62.4525081,
      "lon": -114.3653427,
      "rating": 4.8,
      "user_ratings_total": 150,
      "city": "Yellowknife",
      "website": "https://woodfiredpizzeria.lingaros.com/"
    },
    {
      "name": "Mark's Family Restaurant",
      "place_id": "ChIJeciSVdv20VMR7ngSm8-isWo",
      "address": "5102 50 Ave Lower Level, Yellowknife",
      "lat": 62.45363150000001,
      "lon": -114.3742233,
      "rating": 3.8,
      "user_ratings_total": 253,
      "city": "Yellowknife",
      "website": null
    },
    {
      "name": "Coyote's Family Steakhouse",
      "place_id": "ChIJtTzOA8P20VMRwTU4_DYEuyc",
      "address": "483 Range Lake Rd Unit 2, Yellowknife",
      "lat": 62.4456443,
      "lon": -114.4094772,
      "rating": 4.4,
      "user_ratings_total": 590,
      "city": "Yellowknife",
      "website": "http://coyotesyk.com/"
    },
    {
      "name": "Bluebell Eatery",
      "place_id": "ChIJ6Vq-E9330VMRSV4H1gLb_I8",
      "address": "5006 Franklin Ave #201, Yellowknife",
      "lat": 62.4541,
      "lon": -114.3723892,
      "rating": 4.6,
      "user_ratings_total": 451,
      "city": "Yellowknife",
      "website": "https://www.clover.com/online-ordering/bluebell-eatery-yellowknife-2"
    },
    {
      "name": "Wing Freak",
      "place_id": "ChIJM9md0aT30VMRJyXYCoCdqYw",
      "address": "Nova Inn, 4401 Franklin Ave 3rd Floor, Yellowknife",
      "lat": 62.4568441,
      "lon": -114.3644059,
      "rating": 4.7,
      "user_ratings_total": 39,
      "city": "Yellowknife",
      "website": "https://www.facebook.com/wingfreak"
    },
    {
      "name": "Smokehouse & Grill",
      "place_id": "ChIJndao4Pr30VMRAQOwOxxhOfw",
      "address": "356 Old Airport Rd, Yellowknife",
      "lat": 62.4599585,
      "lon": -114.4127788,
      "rating": 3.9,
      "user_ratings_total": 9,
      "city": "Yellowknife",
      "website": null
    },
    {
      "name": "Bullock's Bistro",
      "place_id": "ChIJY9duy-320VMRZ-9ifI3_j7Q",
      "address": "3534 Weaver Dr, Yellowknife",
      "lat": 62.46474550000001,
      "lon": -114.3499345,
      "rating": 4.5,
      "user_ratings_total": 1855,
      "city": "Yellowknife",
      "website": "http://www.bullocksbistro.ca/"
    },
    {
      "name": "Cooper's/Dirty Northern",
      "place_id": "ChIJ_1Bist1EVFERlagPHmCpACo",
      "address": "103 Main St, Whitehorse",
      "lat": 60.7197176,
      "lon": -135.0511785,
      "rating": 4.4,
      "user_ratings_total": 999,
      "city": "Whitehorse",
      "website": "http://www.dirtynorthernyukon.com/"
    },
    {
      "name": "Eat&Treats",
      "place_id": "ChIJC6jdyWZFVFERDobn6C6cF5s",
      "address": "210 Ogilvie St, Whitehorse",
      "lat": 60.7264221,
      "lon": -135.0589545,
      "rating": 4.9,
      "user_ratings_total": 62,
      "city": "Whitehorse",
      "website": null
    },
    {
      "name": "The Ridge Pub Grill and Offsales",
      "place_id": "ChIJkbN0JTBbVFER7q9bJp4b5fo",
      "address": "81 Wilson Dr, Whitehorse",
      "lat": 60.7034255,
      "lon": -135.102759,
      "rating": 4.3,
      "user_ratings_total": 231,
      "city": "Whitehorse",
      "website": "https://www.facebook.com/TheRidgePub/"
    },
    {
      "name": "Whiskey Jacks Pub & Grill",
      "place_id": "ChIJR_w8bRBDVFER52RAfCwewYs",
      "address": "29 Wann Rd #3, Whitehorse",
      "lat": 60.7745427,
      "lon": -135.1422245,
      "rating": 4.5,
      "user_ratings_total": 413,
      "city": "Whitehorse",
      "website": "http://www.whiskeyjacks.ca/"
    },
    {
      "name": "Wolf's Den Restaurant & Offsales",
      "place_id": "ChIJg5f5fO9CVFERIR1FI55FVfg",
      "address": "90343 Alaska Hwy, Whitehorse",
      "lat": 60.59792539999999,
      "lon": -134.85016,
      "rating": 4.6,
      "user_ratings_total": 119,
      "city": "Whitehorse",
      "website": "http://wolfsden.ca/"
    },
    {
      "name": "Big Bear Eatery & Taphouse",
      "place_id": "ChIJhyBUnTFFVFERnuBWnn4h4Xo",
      "address": "4229 4 Ave, Whitehorse",
      "lat": 60.72789230000001,
      "lon": -135.0651325,
      "rating": 4.6,
      "user_ratings_total": 194,
      "city": "Whitehorse",
      "website": "https://bigbearco.ca/"
    },
    {
      "name": "Titan Tavern & Geek Shop",
      "place_id": "ChIJyeooYdxEVFER2JHN5L77Cd0",
      "address": "3121 3rd Ave, Whitehorse",
      "lat": 60.720494,
      "lon": -135.054707,
      "rating": 4.7,
      "user_ratings_total": 195,
      "city": "Whitehorse",
      "website": "https://www.titantavernyt.com/"
    },
    {
      "name": "506 All Day Grill",
      "place_id": "ChIJ3S9db9tEVFERNoy9VWmVA7A",
      "address": "506 Main St, Whitehorse",
      "lat": 60.71864420000001,
      "lon": -135.0592261,
      "rating": 4.2,
      "user_ratings_total": 335,
      "city": "Whitehorse",
      "website": "http://506alldaygrill.com/"
    },
    {
      "name": "Kit's Kitchen",
      "place_id": "ChIJURannDlFVFERlKSjaSEe83k",
      "address": "1802 Centennial St, Whitehorse",
      "lat": 60.77173730000001,
      "lon": -135.1477075,
      "rating": 4.6,
      "user_ratings_total": 46,
      "city": "Whitehorse",
      "website": "https://kitskitchenyukon.com/"
    },
    {
      "name": "Desycan Indian Restaurant",
      "place_id": "ChIJhaQmlx5FVFER7YeKAhvIcSk",
      "address": "314 Ray St, Whitehorse",
      "lat": 60.7269272,
      "lon": -135.0622549,
      "rating": 4.8,
      "user_ratings_total": 107,
      "city": "Whitehorse",
      "website": "https://gosnappy.io/owa/r/desycan-indian-restaurant/5490/"
    },
    {
      "name": "Chip Inn",
      "place_id": "ChIJa9IGPUFFVFERW18-oDft0So",
      "address": "Takhini Arena, 345 Range Rd, Whitehorse",
      "lat": 60.73545979999999,
      "lon": -135.0890589,
      "rating": 4.6,
      "user_ratings_total": 33,
      "city": "Whitehorse",
      "website": null
    },
    {
      "name": "The Railwork Lounge",
      "place_id": "ChIJO_gDttFFVFERjQR-9ARfwNI",
      "address": "150 Keish St, Whitehorse",
      "lat": 60.7255179,
      "lon": -135.0561165,
      "rating": 4.4,
      "user_ratings_total": 223,
      "city": "Whitehorse",
      "website": "https://www.raveninn.com/railwork-lounge"
    },
    {
      "name": "Boston Pizza",
      "place_id": "ChIJY_znbupEVFERr767Bo2ORw8",
      "address": "2241 2nd Ave, Whitehorse",
      "lat": 60.7300748,
      "lon": -135.0618749,
      "rating": 4,
      "user_ratings_total": 1098,
      "city": "Whitehorse",
      "website": "https://bostonpizza.com/en/locations/whitehorse.html"
    },
    {
      "name": "Chef Angelo",
      "place_id": "ChIJW4v__1BbVFERRbpz413SiXc",
      "address": "38 Lewes Blvd, Whitehorse",
      "lat": 60.705074,
      "lon": -135.029631,
      "rating": 4.8,
      "user_ratings_total": 178,
      "city": "Whitehorse",
      "website": null
    },
    {
      "name": "Ricky's All Day Grill - Whitehorse",
      "place_id": "ChIJWxTf_79EVFERvQS86OmvkWk",
      "address": "2288 2nd Ave, Whitehorse",
      "lat": 60.72849859999999,
      "lon": -135.0658335,
      "rating": 4.4,
      "user_ratings_total": 850,
      "city": "Whitehorse",
      "website": "https://rickysrestaurants.ca/locations/whitehorse/"
    },
    {
      "name": "The Snack",
      "place_id": "ChIJ-SGxITMW000RLWfe3uv44b0",
      "address": "163 Nipisa St, Iqaluit",
      "lat": 63.7445517,
      "lon": -68.51143929999999,
      "rating": 3.8,
      "user_ratings_total": 186,
      "city": "Iqaluit",
      "website": "http://thesnacknu.com/"
    },
    {
      "name": "Hunter\u2019s Market",
      "place_id": "ChIJR11zn6MX000RlOTRL89sRNQ",
      "address": "743 BenEll Drive, Iqaluit",
      "lat": 63.7468848,
      "lon": -68.5203877,
      "rating": 4.3,
      "user_ratings_total": 96,
      "city": "Iqaluit",
      "website": null
    },
    {
      "name": "Tundra Take-out Diner",
      "place_id": "ChIJnaejEkAX000RG1fOrl1jfnY",
      "address": "1528 Ungalliqpaat Cres, Iqaluit",
      "lat": 63.75718,
      "lon": -68.5451708,
      "rating": 4.1,
      "user_ratings_total": 33,
      "city": "Iqaluit",
      "website": "https://arctic-coop.com/index.php/tundra-menu/"
    },
    {
      "name": "The Frob Kitchen & Eatery",
      "place_id": "ChIJPdzKETkW000RA9RQSRv_zHo",
      "address": "Astro Hill Complex, Iqaluit",
      "lat": 63.7477191,
      "lon": -68.5109612,
      "rating": 4.1,
      "user_ratings_total": 100,
      "city": "Iqaluit",
      "website": "https://www.frobisherinn.com/the-frob-kitchen-and-eatery.htm"
    },
    {
      "name": "BT Kitchen Food",
      "place_id": "ChIJ11nIbgAX000RlaqmqOYWc_c",
      "address": "2804 Niaqunngusiariaq, Iqaluit",
      "lat": 63.74033869999999,
      "lon": -68.4782041,
      "rating": 4.9,
      "user_ratings_total": 7,
      "city": "Iqaluit",
      "website": "http://www.iqdelivery.ca/"
    },
    {
      "name": "Yummy Shawarma",
      "place_id": "ChIJdb1FaDgW000RjRt9Xl6K6zo",
      "address": "1089 Mivvik Street E, Iqaluit",
      "lat": 63.7503837,
      "lon": -68.53010619999999,
      "rating": 4.6,
      "user_ratings_total": 313,
      "city": "Iqaluit",
      "website": null
    },
    {
      "name": "Nanook Express food truck",
      "place_id": "ChIJJ_cEwYgX000RtInZAIHvnAk",
      "address": "601 Queen Elizabeth II Wy, Iqaluit",
      "lat": 63.74649710000001,
      "lon": -68.5151313,
      "rating": 5,
      "user_ratings_total": 1,
      "city": "Iqaluit",
      "website": null
    }
  ]
}